[{"name": "Dossenheim Traveler's Cross", "url": "https://lh6.ggpht.com/cPU9lB68Z-iMKSRKu5t9JCJdFTWWa7kTuwIuv4ha7Y-k2HzMHIZXhICNXF1b4zDFUCO0WWl6KEW1UGGGBBBkTke6oSRKtnQ7nZKmocY5-UkswZs", "lat": "49.453741", "lng": "8.675427"}, {"name": "Historischer Briefkasten ", "url": "https://lh3.googleusercontent.com/VScLL_BY2cit9_pZO_Zyu4PhmhbKcbGxJHiWndKPDMooepa5rwFPuI6K8qXUd_7Cm5i9OXh2yg6PMihFcwbl", "lat": "49.452121", "lng": "8.677681"}, {"name": "Stone Age Cattle Bone", "url": "https://lh3.googleusercontent.com/jpv9wcGFlHP1nTJ3pfkThAjG0iSSzfOqSvjRRFLCwP-w2XqKyfjlPLiHwepICyQueEn6dazlbAMt-mNl238", "lat": "49.456140", "lng": "8.677111"}, {"name": "Altes Porphyrwerk", "url": "https://lh3.googleusercontent.com/ahda9QxW-yemOKWRNFWYlgSlC4xatshVD13TZXR6hOd2vDCO_NPttmxZLBRuSyNAZhuBlqGb1WXzG6iAzIptNg", "lat": "49.453756", "lng": "8.680574"}, {"name": "Marienstatue mit Kreuz ", "url": "https://lh3.googleusercontent.com/xldeyD0nXqcSJ4QLZxsYWpKxW2LZhtZXn_sPY7D1mqE2Q5p3luIuDwrgF5XnFbt_DULs-9c8cz2Z7IBruSnV", "lat": "49.453222", "lng": "8.676086"}, {"name": "Jesus Statue", "url": "https://lh3.ggpht.com/R5wZQ-fMfLJp2GOjb5wNpXPUWTTxmYheztiy6J1LQKIBFg_svCkWYFArlP8cE_CE15dCwp9wCDNOHKXY3hILaB4TaPF_4I2_NlorszM8bNO9fAs8-g", "lat": "49.447989", "lng": "8.673492"}, {"name": "Maria Mit Kind", "url": "https://lh4.ggpht.com/Vu1KrMVAm_Z7JZyFtReG4KPl5n6Ycq-4OuIRn0IbHfxGvKBUtwG-EGN1LwUHJ8Lqdjq3ZMUFzc4ovzlUnDLw", "lat": "49.448228", "lng": "8.672925"}, {"name": "Kurf\u00fcrstlicher Schafhof", "url": "https://lh3.googleusercontent.com/lDXITjOpQ0aF356_fmdnhSpBV-jOhjyhdKq_NpSoJf5nQAvaac8vSMepudve0MzqrXJ-Kx0WDEl1PTnk0HI", "lat": "49.451014", "lng": "8.673435"}, {"name": "Maria Mit Kind ", "url": "https://lh4.ggpht.com/lPKA3uJk7bTlV18-iW_Kusplwhclg_-uunbP45lFxC5Fh2G6DVI5g_l6mu845HWf74566PJoXoQLRD6j9akC", "lat": "49.448231", "lng": "8.672612"}, {"name": "Geschichte der Dossenheimer Steinbr\u00fcche", "url": "https://lh5.ggpht.com/xYPjsvXmZ5ve1mmNqtFyhDUSzWLI13uGi7zeI6w5FVPkljiwdlC9srtO5dvxbL1HvUF7kaKouEYKloSFh9pP", "lat": "49.447283", "lng": "8.681531"}, {"name": "Lebensraum Wechselkr\u00f6ten", "url": "https://lh3.googleusercontent.com/kibbwMBepUIccXMj5ZNShfC6pIulTCTxyulHPvmB8YpY9eCnzvH-w49AFvYh7uqLfGMrur6Y2re7kQogUBE", "lat": "49.447531", "lng": "8.682221"}, {"name": "Schwarze Maria mit Kind", "url": "https://lh3.googleusercontent.com/MVzdVm0OoyusrWyAzoXCsX4PUjefgoujp4u_9Pte-fzraarGtSBay1M7Ox-nRoWLrmSrDpABeh2VW6EGduAf", "lat": "49.449940", "lng": "8.676622"}, {"name": "Maria Mit Christuskind", "url": "https://lh3.ggpht.com/HS-X1ginFSrXN4gMvgSBTaKpM20alzPRgI_JIgU8BE2K34kSHQmK3iUgaTX_CcsDQEWWQn0zIDmfHI5AIL4", "lat": "49.450132", "lng": "8.679541"}, {"name": "Josef Statue", "url": "https://lh3.googleusercontent.com/eCj9Krazce76uIxRdXOWK9bZyL8BLAGExkbcKZ9bmtgmfXdal3dL3TiBRNw2ng-l1Y80SG3pjxJP_MAxoKqj", "lat": "49.449784", "lng": "8.674330"}, {"name": "Maria K\u00f6nigin des Friedens", "url": "https://lh6.ggpht.com/t9L0qsJsVX94tv0CSqp2wznlZwBDzNnQOsddq1UH3HaNFPEAIBdjHG_u8pRCh9UuhnauKXAQ8LJHpuQX5RXdoeqoqRXC13bXhQK08KZXI4aWzsgE", "lat": "49.449013", "lng": "8.674455"}, {"name": "Round Fountain", "url": "https://lh3.googleusercontent.com/SoLhcUY3kMWYpqd9dKDoV7G9kHW_5n6rN8RM4OS2XQONNrDqqEaVTSpeP-kew9EBnvx1BSBVDvFjrt0kN66NyQ", "lat": "49.451122", "lng": "8.677495"}, {"name": "Steinbruchgel\u00e4nde", "url": "https://lh5.ggpht.com/TUyXbJTHQ65-RwJH_X6z41GTOA-PCodUhRTrMFfyjUM08Ga6JODqrHnfDNnNCINbpkXw9BkQXGC9sDZHplgm", "lat": "49.447809", "lng": "8.682011"}, {"name": "Deer Mural Dossenheim", "url": "https://lh3.googleusercontent.com/1qhgalxnnschIulTnz88Qiml7unhT5cuSTzok0KUXdKQSVV5zXBbojhnYhxa968pM-lAwDXCCWQd-ZPYPHHR", "lat": "49.451470", "lng": "8.677280"}, {"name": "St. Pankratius, Dossenheim ", "url": "https://lh5.ggpht.com/BQbngqkeb5y3WTudmSIe2PWD8b5lNWaUWWx0d6WptOMy7RzqAcGrF15GBKBp3FtoMwIidZiDfqcTrAO4I3-6", "lat": "49.448951", "lng": "8.674921"}, {"name": "Dossenheim - Brunnen", "url": "https://lh3.googleusercontent.com/Gg058K77jrkjGTziOjRc4VQbABhFCxMTqeOwoXlpDsKjD56ef-at0jXCvGCieZ1qLVmaivXDpkwJxUL2-Ggr", "lat": "49.450236", "lng": "8.681621"}, {"name": "Kreuz mit Losung ", "url": "https://lh3.googleusercontent.com/eh5up1dA0RR5hFU4qjMJi8PfzKHs8UXGfuqggEBC5sPJ-0o5JUylzxEQYTc9cWB8Qac2ouCMa4z2PrMZwITC", "lat": "49.447924", "lng": "8.679108"}, {"name": "Dossenheim Schulhaus", "url": "https://lh3.googleusercontent.com/TY7wgSop8hk6UOptug1mWG2PT2IG5GKRE03vgjkAw-eIZuQT3Uqjoc3BgG-76of0Kx6yniJGeji66JHdEVK8ig", "lat": "49.450068", "lng": "8.678371"}, {"name": "Metzgerbildnis", "url": "https://lh3.googleusercontent.com/eCC1e4TEKpMHhSgdaUUU-p9fnSb7C8M1jmNgfFI3Xn9FjEdPDTyvxYyPVJdINpddVlqWnyI4cmuDLXMJ2Lg", "lat": "49.451395", "lng": "8.676442"}, {"name": "Ritterr\u00fcstung Dossenheim", "url": "https://lh4.ggpht.com/_bW6hHtZG9Oc1hMimTxiBo1gEkia5yCIhcAsGk3V6UVW3IadxwplQ9cA3qVFyckzL8f1wz52Jitd1_zp9bNf5fcl6nhdoN-wQPfIi21v__iKy_3wCg", "lat": "49.451888", "lng": "8.677718"}, {"name": "Evangelische Kirche Dossenheim", "url": "https://lh3.googleusercontent.com/T6zJqizvBPLzBI2JZ4L30fsBdQH8OnUNKwpD-qdoqzLnvkXaK72Giyt5Wxvao9I0FGuiPK5MYof0vL7DeAA", "lat": "49.450631", "lng": "8.680382"}]