[{"name": "Persil Clock", "url": "http://lh5.ggpht.com/40DWWqw7bM3HtbEyTYp7O2miDp_EZCUwKtBUT9klwe-GL_U1dI4p445cgmEBu8cKXIyYraUhDFnypX47PZH9", "lat": "49.408347", "lng": "8.648801"}, {"name": "Stone Mural", "url": "http://lh3.googleusercontent.com/ozBz7B9N704j2rCwgjyCy6W7bLZXAK1XqpzkOwk326p0uBAtwlCejSU3Am2BtdYLH4ts8laRtyaQtc7p0yM", "lat": "49.401666", "lng": "8.645916"}, {"name": "Be a Stier", "url": "http://lh5.ggpht.com/8CEAyGBNRpSNV0yyyuO4ap5-p4fNbZn81DLTIxmrY3YndvuzeKnzX_CCAzr6OlmAVQ0n6h2SzcTgsYHOWX5W9A", "lat": "49.407478", "lng": "8.646967"}, {"name": "Kirche der Emmaus Gemeinde", "url": "http://lh6.ggpht.com/9PRV_qCtDqOrU9o8HpE_CPJM_e2_y89kbgdjeloloE6bHTRZf-BUbSh5zI-cFHzVfEFSxp9MtzD1HFhyG-k", "lat": "49.401106", "lng": "8.648559"}, {"name": "M\u00f6wenspielplatz", "url": "http://lh3.googleusercontent.com/NkdaQkxNw_ux7LN-BbNK0LwZNK8wpszGTipnZlVU9yc-rtp7fB3CjOTQvY4VrbncKksbQ4eDDpgTaBsH3do", "lat": "49.400759", "lng": "8.645140"}, {"name": "STROM! ", "url": "http://lh6.ggpht.com/D7SwDjggjv2Sa7_UaxWR4x0PpCxaEg8QkT6t_O6N6k1nfVNilVs30La-m8KF5MbbXpCfzsCo95VG3XY4w2etYg", "lat": "49.400985", "lng": "8.645831"}, {"name": "Eierbrunnen", "url": "http://lh6.ggpht.com/BV0TMwlEZ0hiVGT774PaGek-u7qbaCAFqBHlsNU3TPl5pqzK30g0oZaa1njfYB3mNVhsaaERsAG6kh2ELbaD", "lat": "49.402068", "lng": "8.648487"}, {"name": "Spielplatz Hans-Eberle-Anlage", "url": "http://lh3.ggpht.com/NI_FdMoVVoTOQOdVGk0ypxMBi5B_AI7bcHqDQNEzpeJz-_rS8LjtDCW2uFfiTZc_fipVc_TZ5PgUIAexQf2H", "lat": "49.400709", "lng": "8.649026"}, {"name": "Rathaus Pfaffengrund", "url": "http://lh3.googleusercontent.com/PSMzcHZZU1F__fqAWigG4HF_1o9PefAxT6YtMsHCFVJuLyO2N6_FqNf2wpbqJyUSvy_-iRe-BLPaaImE8RpK", "lat": "49.402319", "lng": "8.647203"}, {"name": "Ged\u00e4chtniss\u00e4ulen Pfaffengrund", "url": "http://lh6.ggpht.com/hot9bHPfAU0n69hdut0ICQWp2HNXHx6k2ifYSMT4_VhxCUa8M33jyXxq_o4D0_nr0Z5CKNqEi45qEIzgRMM", "lat": "49.401381", "lng": "8.655343"}, {"name": "Sch\u00fctzenh\u00e4uschen", "url": "http://lh6.ggpht.com/vgv4lq2VgPLt6mcU9xCoHdyc2WZeEjLi6U5tyGWiz4Qs6lbHqWDPzIryWgKAW4ufLr_6gmqLaV__qCgDljQW", "lat": "49.399882", "lng": "8.648014"}, {"name": "St. Marien Portal", "url": "http://lh3.ggpht.com/xeFfXJjlbtSvUDjG_wHk9skFOQP-U9B5EIlw-ky8kZ-7ZfYdqxIwihHERs7N6i42yWHHysOKsa8gdOFoC5rD", "lat": "49.399344", "lng": "8.648423"}, {"name": "Stauffenberg-Schule", "url": "http://lh5.ggpht.com/6d0kHSaft_QQWwimsVoeMf8mENKsmsL_UUsUWGp6n6Mvnw3iozMPGN0OXBYjlRB16PRpMuQcyYwfQrXkXvk393s_9IvHM3dDNRhhfu9is2nTUc6w", "lat": "49.400288", "lng": "8.645755"}, {"name": "B\u00e4rige Nachbarn ", "url": "http://lh5.ggpht.com/-c3YkreqQw68688btUoSzi3PgfTDD1A9nriIiXHz6lAiXCJITQMpC-y7AslJNgKpOddeAFolCzNc72_0s0Q", "lat": "49.400381", "lng": "8.651271"}]