[{"name": "Ave Maria", "url": "https://lh5.ggpht.com/qeT7TlTmxUOXJNaE9DlZtAMtTl44E0MQ_XcnyN4QVPooSi9dgedu1UlKGJXvgkBDBjgsvWCJhTJz45H75uKN", "lat": "49.403282", "lng": "8.700731"}, {"name": "Fischstein", "url": "https://lh6.ggpht.com/YBa23x_xC66gNMp_oBBwPGWvcBVFQKx46A5VwHjTELYdc41dW6VUquHZATCpM9ngOsaGOPNCqEtfIPIeOsML", "lat": "49.404230", "lng": "8.701862"}, {"name": "Tillysche Batteriestellung", "url": "https://lh6.ggpht.com/eMJq1yVEGlGXaSx2rYd8vyQLIdIF7L1RIVhdjalum5LFR9dFDlY1O2taDETcZ0YH-42PgShksfEXMCbIprM", "lat": "49.402884", "lng": "8.699430"}, {"name": "Gaisbergturm", "url": "https://lh5.ggpht.com/ORFofylRTXSDNXB0FD9VAA3Sx7Zp5mCleCMehQmTh2o4S_RD8dnwM301swamp3ESaaWUmmCou9I___ZU9NY", "lat": "49.403467", "lng": "8.704229"}, {"name": "Sprungh\u00f6he", "url": "https://lh3.ggpht.com/-ZZb5vUERQZe7OeDbZsFw44AxAZOTvp0GX3rR99ACfaPoOgI0yAk_pi4OV_iG9QcypQ7nZUhEavWZm1SUgRM", "lat": "49.401385", "lng": "8.708931"}, {"name": "Berglager 1622", "url": "https://lh5.ggpht.com/DEZ3zLqpS1MvC9mD8R1GnVB8AsEcEADgVHD1mTg-pszgtDNvHt--ConNQwJF4gfdMRYonNDtDrBVYJAUeSTD", "lat": "49.401284", "lng": "8.709356"}, {"name": "Rotahorn", "url": "https://lh5.ggpht.com/YdrUVZs4mehldlNu_X1urhETp7WeOed0iK3SlARAy5ZS9or_Xasehd8pyuStCris6qz-AeTGxnNLPnp33Ymk", "lat": "49.400918", "lng": "8.709622"}, {"name": "K\u00fchruhe ", "url": "https://lh6.ggpht.com/juX6zc_qSCPHe7hdBKAzmsrk_raX51GBHCFK8TtME2dfnpU4OZV1XKotwdKLOwe2prmUOpp26FxtHHgerVg", "lat": "49.396438", "lng": "8.706234"}, {"name": "Wegstein Bierhelder Steige", "url": "https://lh5.ggpht.com/FHlTwHtJlpYqOI26qYpYKtBcpn1AX-VQ6oK2qvcfYnzESF9s4TMJni-nCwb3zfLmLjMr2hpmS1gl6glltoMc", "lat": "49.396439", "lng": "8.698794"}, {"name": "Drei-Tr\u00f6ge-Brunnen", "url": "https://lh5.ggpht.com/nlY9fKVBb1IibOBV_uBVsGV_nUyGPCpuLvyF7SYG6r9rm44DNESyeP_c1-sbTFFgrtDApoLaOrIdBw__QwoO", "lat": "49.395705", "lng": "8.700211"}, {"name": "Gr\u00fcnes H\u00e4usel", "url": "https://lh4.ggpht.com/o-ijqYAUJhevXP4SMrX6BR5Nu2n9ko03ce8JeYLmFEHSnWKoMWeuAoPNrtl3lwkHUufL24-R9SgHIyLyjh8", "lat": "49.395053", "lng": "8.701823"}, {"name": "Eichh\u00f6rnchen-Stamm", "url": "https://lh5.ggpht.com/OHnqtDhOTH8OYrg7hU5qFFmAIQAEK1oHXx-D2F0Juva8r4eR2Wgjx2wqIkr8z2_vbdTXQTRLn_yx5LEyvaei", "lat": "49.400114", "lng": "8.704229"}, {"name": "Heldenweg", "url": "https://lh3.ggpht.com/r37DExelTLktsVz1AtaU85IHRlNbfeZ4_VmMbXZPYYjHb67_71kw4Bznz6NruLKMVVQC6mp7tGvC7-phTRU", "lat": "49.395156", "lng": "8.703754"}, {"name": "Algiertanne", "url": "https://lh5.ggpht.com/YncXYX9_a4MrCKB9HVgoo_vTzG8A5QSUSqUhkb-E9MmCHuqeLfaYoQQiNo0YUsZnfG88YgsBAacgjwALy14", "lat": "49.400259", "lng": "8.709378"}, {"name": "Vier Richtungen", "url": "https://lh3.ggpht.com/p8YUH4qy8ImZ-lBhccsYX4BEaO0rT3I_sbBXf1k0YDxuurvYXrlj-RYaX1Uuu4Scr8ShSL_U-ESQLHyLRu4", "lat": "49.400272", "lng": "8.707768"}]