[{"name": "Erbaut Anno 1904", "url": "https://lh5.ggpht.com/E0O_1KeS9V7F95_IXBfQl0-iwwAUMR-JTZOEviZOxQDi8F0WPzKDT2MUIi0EERt448ZCoHJhls7gkHi5zDse", "lat": "49.430477", "lng": "8.682608", "stop": true, "gym": false}, {"name": "Hauszwetschge", "url": "https://lh4.ggpht.com/Ur3EI6tVSg3TU2fTyWD_vrP3Zj_K-UkJr6SZSO3V7812f0U8IG8pQ40yQzKGPyS_UDq23fDVDWFFfPA2qfrc", "lat": "49.435997", "lng": "8.683853", "stop": true, "gym": false}, {"name": "Fritz Frey Memorial ", "url": "https://lh5.ggpht.com/sOX_C-izf-2N2Msq1Aus1SKGG83geaYODd9eIFrVleGd2IGrx1o_iB5CXfut34LNpuN2hn-HVs-mcbDI1kxO", "lat": "49.435270", "lng": "8.681511", "stop": false, "gym": true}, {"name": "Maria Magdalena ", "url": "https://lh3.ggpht.com/4FXFp4DaEPDRJqCSAJ1n6d-f7atanrqLQlfZfvFnvmoxYziS1GhKlWo4U9Q-pNZy-f4tPtaVvQclcJkCm8E", "lat": "49.431440", "lng": "8.681196", "stop": true, "gym": false}, {"name": "Door", "url": "https://lh3.ggpht.com/O2t4sgPG6vnUzfVLTZc8J72t91OfEkkVzV5Ju1l1vCzjKPXq-awTG9z89KIly3pzRc51uoNyIZgBrmW_vhi7", "lat": "49.430246", "lng": "8.683891", "stop": true, "gym": false}, {"name": "Mural M. Sch 1928 ", "url": "https://lh3.ggpht.com/S1_PDVfPL7vN1UhihSf2LjdVj0y7UYsbmtYzE7SuVsLgxnqyTGkpXjAGam-RQLOWbtFRISMmq9TYrmDPievw4g", "lat": "49.429964", "lng": "8.681569", "stop": true, "gym": false}, {"name": "Spielplatz ", "url": "https://lh3.ggpht.com/M2XEtXdKI8L5RN7bN2JBQGfcPPJcne_efIqBd1r84UdY8HarDB-zbvQdrv4Lo9OKekuAg8mtZ2zL4pjekg", "lat": "49.431671", "lng": "8.683692", "stop": true, "gym": false}, {"name": "Friedhofskapelle Handschusheim", "url": "https://lh3.googleusercontent.com/Z212KRA8z3d1yA0-m69X0ml-54Wf3ZjI98Du6-u4v3av9x6eVBiho0F3YsZE6SA6DkhULDnxZmFXHFwSqtA4", "lat": "49.432885", "lng": "8.687017", "stop": true, "gym": false}, {"name": "Sandsteins\u00e4ule Handschuhsheim", "url": "https://lh5.ggpht.com/Gu_XUT1ish6w5w7dYLqCGFVGaeDakeHZPz2y1fJYXLmKzAePwy-CRwrcBes_8RCKeRgBNqE34UG66wYQmu0oz7Zw6lfAstzVJ9gq8kby-Kw2M18ogA", "lat": "49.434140", "lng": "8.685012", "stop": false, "gym": true}, {"name": "Arbeit Am Stein 1953", "url": "https://lh3.googleusercontent.com/DkuujQQhhtYJxMq2MYv4K4BKWaJ9EuIhSWBNhK05PbFM8Kwi2UCz1K25VA2z0I6ubSjyZHqnfpidaXFfwZ4O", "lat": "49.433667", "lng": "8.685578", "stop": true, "gym": false}, {"name": "Water Fountain", "url": "https://lh4.ggpht.com/oGvbLyi1aUnDndS6ZGhC6NIem3lqaP3wRhXLGel4Hb639eDFMZnMkhbtuPrxzf-ZvRe9bi00q1HY1PPVisdV", "lat": "49.430603", "lng": "8.692914", "stop": true, "gym": false}, {"name": "NEON Workshop ", "url": "https://lh4.ggpht.com/fMD0N--rZ3mXzpijemNMYeQK94WcrJblnzHn182W0gdYlsnNPnuZ7Yxq9zalVpFY-JxmHQHH59ZgDbje2fvqzg", "lat": "49.427149", "lng": "8.684398", "stop": true, "gym": false}, {"name": "Tankstelle Handschuhsheim", "url": "https://lh5.ggpht.com/l_B3myXRsbZ3vOmHNYJETcnMRZxYDBAPP9SiXaOL1601gl9BIa8Y5B8szaQ-QJZHbSPrmQlXkqWCsKPy8apS", "lat": "49.429880", "lng": "8.682382", "stop": false, "gym": true}, {"name": "Historical Facade Klausenpfad", "url": "https://lh3.ggpht.com/qTucqz-9JOJHelgrQzc8aHuIcjXVqg4Wm_SGEGELniWJQXCdC7C4gh7tqTVxP6JuK0eLG8qABbU8C1Q0064", "lat": "49.426375", "lng": "8.683695", "stop": true, "gym": false}, {"name": "Giant Spin", "url": "https://lh6.ggpht.com/3KDe50A8Gu2MQa3BaNrKFLspTX1-q5C72-CAkvVb8c5JNzoryLfaKZAuZ9VFeXPUNsldSL_Resh8RkSdwHcx", "lat": "49.428044", "lng": "8.682404", "stop": true, "gym": false}, {"name": "OEG Bahnhof Handschuhsheim", "url": "https://lh5.ggpht.com/P69YRdS3rNaO0e0XA5b4YDsK6kvh4aCHTnHTWu0Mk76dbPmiQNKoJFcm9fPRjB5HNucXSdwaeZ8QLhJXJPKw2OFTmxRlol593UHjGB2KYkyHINU4yA", "lat": "49.427773", "lng": "8.683279", "stop": false, "gym": true}, {"name": "Kriegstotendenkmal", "url": "https://lh4.ggpht.com/GPMAeiHL2GadFgkV1iSta5jT4sBZRDXMX3SsRb2SK2c-HdxWI0Q3ahk9vO7vSNJ83nmSsGlS3vV6BaPJkgPVFnw10ckABVnyyakN9AeQRDinGgO_KQ", "lat": "49.426438", "lng": "8.688701", "stop": true, "gym": false}, {"name": "Friedenskirche Handschuhsheim", "url": "https://lh3.ggpht.com/5_Zybd2Fm2YmUH-8YqDiQRtcB3cDgG-f_zlnF-7gTn7GzKxOIqXQw8rMgxOZ-QcshoHdRe6091fWWxC-luMfsQ", "lat": "49.428925", "lng": "8.685977", "stop": true, "gym": false}, {"name": "Graham Park", "url": "https://lh4.ggpht.com/f6tG7tQue8Cb696TmFCEMrBb0GKBnGEoJDsH5-V1QXHCWHK1a-vsN3ZctRNWapJMNS4csumNpFQXEsH4qIPmWgAt_v-V53x9xEu702-j3V58Vf4", "lat": "49.427511", "lng": "8.685961", "stop": false, "gym": false}, {"name": "Goldenes Schaf", "url": "https://lh3.ggpht.com/c20Mg1EHI0XPksrdap9NgPDeUty6cOYMY1ehFzDakIQlME8czfFQbNBSlE6ZvaDuQNnfWTciToyKXEfc6w", "lat": "49.426282", "lng": "8.688277", "stop": true, "gym": false}, {"name": "Efeubogen Handschuhsheim", "url": "https://lh5.ggpht.com/Fqsw9Ijsrq3orpSelaq_YKwqte1EyoBKRy7v_kDwicENkP6vAHNrecSCu0IkPdXt8NzMrC5hSKWzihI-xHLzoI91ymN563iAUxCLPclimvCn6PSZ", "lat": "49.429898", "lng": "8.687810", "stop": true, "gym": false}, {"name": "Kriegerdenkmal 2", "url": "https://lh6.ggpht.com/rrE_QlbDqy_quMxF_WdAwP64CvHGs-8HH8cdKibQ84Z0opRUsBYmWVe-L5ieu4BKQeZdw2ttjow8d61s3MzUExuMMoulDLchzsAvwLLUNyWCPQ", "lat": "49.428498", "lng": "8.686001", "stop": false, "gym": false}, {"name": "Tiefburg Entrance Heidelberg", "url": "https://lh3.ggpht.com/0QrKhxE16272jr6Hly_2VCOxKwTq6sHFJsEW0uh4smC3TeDNbty5m21HS8EKvYtwbeWmjTaSFsnowoA3hEP3XCtqvQHvweQU0NNzn7FEWNR-MSyz", "lat": "49.428164", "lng": "8.686266", "stop": true, "gym": false}, {"name": "Wappen Handschuhsheim", "url": "https://lh5.ggpht.com/HFYixRgQDplq9aH9H21poMoBIVzOsJulTGsqOw-7Svq-1t-CnSZsG5wB6mjmC2TUZg42Vh8gJoGZqxKAPlOj", "lat": "49.428415", "lng": "8.686328", "stop": false, "gym": false}, {"name": "Torbogen Handschuhsheim", "url": "https://lh6.ggpht.com/407XVc7Q9DLzEIcuMZBzHOYnuyCDaF4LWs_HuqIdH7urU5Y5_KNzRZELj3Uiq6KDmwtHQT8vmTmgINU0qxEMC3VlP5CjL3r5znaeBA46O80Sf0zm", "lat": "49.429004", "lng": "8.687390", "stop": true, "gym": false}, {"name": "Grahampark", "url": "https://lh3.googleusercontent.com/cL2Eln-YsBxht5S54gTjiu6r0QjDkvUzG5mcJ1v-ZdCZup5CFpe0USUzhVyLFwTF8aheceXbTspjZMGJLHNvvw", "lat": "49.427265", "lng": "8.686181", "stop": true, "gym": false}, {"name": "Art House Hendesse", "url": "https://lh4.ggpht.com/dCmZ8vGO9B6pQUg27x2A082Z1CUhp6afggqmjog_pWu-eoY9Ed7n_--yDAE36MkdCCkq2xXL1KWzk8rQkwc", "lat": "49.426929", "lng": "8.689968", "stop": true, "gym": false}, {"name": "Brunnen Tiefburg", "url": "https://lh3.ggpht.com/bpZes5oo_qP6oUfWhwDY8xu1UPsTbkw_XGPTQvMXhBx2rnBvg5Hor-Z5jC5a8-eT_-xJrw4n9LlUCfgcSFCGmrBqNS-sSiPbw4pyhGYd3MAGmQ4", "lat": "49.427816", "lng": "8.685925", "stop": true, "gym": false}, {"name": "St. Vitus Kirche", "url": "https://lh3.ggpht.com/1ZZFW_LEXFdNrGdaDuzMCZy-UyJNZvk-HDq4438a_wtAL1o0tNwJxrapO89rwfvUtLEz4gHR91oYai5E4-8", "lat": "49.426403", "lng": "8.687361", "stop": false, "gym": true}, {"name": "Rathaus Handschuhsheim", "url": "https://lh6.ggpht.com/o6XYdVK6MzEFCS4kVG462cR-1a9xoQAyg8GmxBgnJkUkJiteUH7ol0DDI_is_1gjOFIycqGItYAqzbuE_QZB", "lat": "49.427994", "lng": "8.687294", "stop": false, "gym": true}, {"name": "Lindentanz", "url": "https://lh4.ggpht.com/R2_GX--vCh-Gnw2H71GxjWIQMlQ7NeNmGcquDYdj-2HJoGspP4-P2GOYjxjhiUMFQSBoYILhLtHT2Gwz2wTc", "lat": "49.427035", "lng": "8.687665", "stop": true, "gym": false}, {"name": "Erich-H\u00fcbner-Platz", "url": "https://lh6.ggpht.com/MoaPuBLi0-mZYHu0rClFJcGCIjiiXR-K7GOXmqIXW5mcaXXSBbtdSmM81PaqA0sjZxyoAZ_Yrl8Hye5xUtlKdA", "lat": "49.428147", "lng": "8.687619", "stop": true, "gym": false}, {"name": "Helmst\u00e4dter Herrenhaus", "url": "https://lh4.ggpht.com/RnkmOBTfEqVU7tYNY9-UJZVjDZUg1mRcSTzgIgg6ZjjHdpN8CC43PC-h78vMKQw6p5afIi2ev6XU_q1KXMNMz4M_39W8gZbizyeqKmkuLmAVq0Hw", "lat": "49.427960", "lng": "8.686547", "stop": false, "gym": false}]