[{"name": "Hans Breuer Gedenkstein", "url": "https://lh6.ggpht.com/Rr6MupHLdkWfueQv6BhZEA_EHvKpxyC5lrtiYTGat5bV-LvWBFjej1XLz2mJgkAhmlhx2Z9mqgynCnXBSa_nEQ", "lat": "49.416391", "lng": "8.659773"}, {"name": "Graffiti Polizeisportverein", "url": "https://lh5.ggpht.com/ggOWre0RB8p-nvXxK43fJRTkQGdvC09sgryq86YnyedVZWNl-xbCYCXz2s-gDFr_WfDlBqR4jG_75HHZmIBH", "lat": "49.417769", "lng": "8.657008"}, {"name": "Rugby Club SCN", "url": "https://lh5.ggpht.com/aUJlsZu4JfXDV5hZYrfbzP7IeVUM3a1MMWGo_DaduAsAC_6j7vAnd509eoe7jdM2r-DG1-TWcsN4xWBaVEP7", "lat": "49.416712", "lng": "8.661186"}, {"name": "Elefant in Stein", "url": "https://lh3.googleusercontent.com/BpFCI-c5cBXQd4m7l4FwDuj36Wtyw-B4RC2HHx4QcrbyBQPbNrytI8M1TZrOtDez1dJqCtF9IdREfMg29VHqOQ", "lat": "49.415611", "lng": "8.661842"}, {"name": "Stone fountain ", "url": "https://lh3.googleusercontent.com/TqgvJVDsVRIOPyNu4lV-NAx32mnJ8wDYXWizN-JdZnnTt0UjSwDF5Yzr87T9r_2ZQ55iZNjeo_CFxrnnejv9", "lat": "49.415701", "lng": "8.659044"}, {"name": "Playing Truck", "url": "https://lh4.ggpht.com/TRV7ZUv4bwS54l-zPhqp7TrfiVUgH7erSugaHtPss-Q1fQzShNMlqchqoKDQCMzTIKSzzSZXmqdhl9wrjQc4Qg", "lat": "49.415534", "lng": "8.660963"}, {"name": "Monstergiraffenstatue", "url": "https://lh5.ggpht.com/mx81lU7env47eFzXaqDlQmwhGuvhXShmzzEBJI2r-v2R_tyyM3P6w_hKeuD1Zqw1LZc_MsLeZhTQWiCoBFY", "lat": "49.417207", "lng": "8.662070"}, {"name": "Tago", "url": "https://lh3.ggpht.com/ziT4EaC3NwpeSa2gPrX4wxzgNVrrQ7jZQcnmkM5ted4BtoIT-qbxwGPqo8P79NOiau74OoVs_PbmowD8rZY", "lat": "49.415630", "lng": "8.659612"}, {"name": "Drache", "url": "https://lh3.ggpht.com/FBEWFcZE6_GzS1ctztwpwaj9Lp6VG5NzUgxh1982Enja8ZBUUgg1vdIuTqGE93m7AWWTojfLk7PQHBZkWBEh", "lat": "49.418108", "lng": "8.652453"}, {"name": "Africa Habitat Climbing Tower", "url": "https://lh5.ggpht.com/rHskJSTo_yR2xKnRiI8DEiEFmtfgVlOrXIbfuPASOaFI4fyPEkbrIuCVy1CuTUSXkflFkeo2nELqI2DEj-Ai", "lat": "49.416100", "lng": "8.661615"}, {"name": "Elefanten-Sch\u00e4del", "url": "https://lh3.ggpht.com/45t2cjsQ6XH4Od17zqH3xGXeizqOxsZKBbK20aLtpohCQFdHaaZSI8dQpT41v075QVaaE6cykCJ4e4f_hSab", "lat": "49.416253", "lng": "8.660326"}, {"name": "Kissing Bushman", "url": "https://lh3.ggpht.com/KWSl9_cJQK_9xIhIaB7suShh3j-JAVXpy37TFP8QzHKijJ04NYHvcpeJiaNW8DiUrs-U1NrpP8StpNuXcf_y", "lat": "49.415392", "lng": "8.660076"}, {"name": "Afrikahaus", "url": "https://lh4.ggpht.com/rOSSpyqb6dtRsgmHeyLR5JTyNZ5UVpg4kIInKDFwlCw71xOb1o3w6W9D7octfMH1LQLqiMadIvMqdrkx5OfY", "lat": "49.415869", "lng": "8.661601"}, {"name": "Halbes Pferd ", "url": "https://lh4.ggpht.com/j7ckaiN39BMhBCrPLRPyDgZ5bgr-gStpyxs1lq_N2wrIRhj3XmQ04bNWoRF9SOnIoK_a2X-wNqknO0hJu_A", "lat": "49.415685", "lng": "8.658617"}, {"name": "Transformer", "url": "https://lh3.ggpht.com/Yw5-KYgtsOxABVMxGsifaaZMpnD73eh3p2PmPhK1gVsYwE1mGx-AF8SFSx3nar8P9k-X_QTwmyycvui9WDOfJQ", "lat": "49.418328", "lng": "8.652581"}, {"name": "Elefantenf\u00fcsse", "url": "https://lh5.ggpht.com/nptmefD2kLvHbnyQEqAcw6XeOrtsKgkP3NExu4MaR0PpV6DiRgSYsGwJDELIDh-5W7OAodTJUyga2mEUSL0", "lat": "49.415915", "lng": "8.660707"}, {"name": "Wunder Der Geburt", "url": "https://lh4.ggpht.com/Oc-aU03_rT5LgIIi93jjnvtnPkH--qBntpTeF4rITbGXGkv76Qb8sxlCKaQp6blZ7YuJ7FHcoBUBANcz1N0h", "lat": "49.417178", "lng": "8.661596"}, {"name": "Wasserpflanzen", "url": "https://lh3.ggpht.com/G1pHoqc1KmeybRRyxumBXRO_N3yRFooLR8nSs-1gZgcB-nPwMGrkYGhPVk7S8iWF2P4_ARGg07_im0oc-oLPnA", "lat": "49.417004", "lng": "8.653718"}, {"name": "Frog & Turtle", "url": "https://lh6.ggpht.com/7qbdJnT7H4Z9JQoyOC4B5FmxISg0ssk7hAdCvA-WMaTJc0-eDH1b9pCrKg3-37_gyVAdGQqjs6ICAtvNmeWl", "lat": "49.415431", "lng": "8.659015"}, {"name": "Small Clawed Otter Statue", "url": "https://lh3.ggpht.com/ZgFPC4BiTdSg1BchczYHy8TQmttZ2XgA6dwlnkZHaJXtTwwKMQc6IdCnZQ1bIv06kH0WUOgGt7Jfm9pljgQF4A", "lat": "49.416171", "lng": "8.660824"}, {"name": "Neub\u00fcrger in Deutschland", "url": "https://lh6.ggpht.com/-5CiSPqMb4Wx8iPJJvKN9h4uieAHkn0LLocUrR30pvVFn0Xne82ibKvIfgRWfk3qATdhPyRihXzBZq34OnKqIA", "lat": "49.415942", "lng": "8.659366"}, {"name": "Mama Panda ", "url": "https://lh3.ggpht.com/0rlCA1TvExJc54WyZ_RhC1E2PTUkgF7DqFDktKAMNODM3gV2y8FxJbx7FUqf1-GIFU4-bhpJYIAN_haRxGHdIw", "lat": "49.416944", "lng": "8.662703"}, {"name": "SRH Tower ", "url": "https://lh3.ggpht.com/vya6p6MauTQQJ366Ib0be0xnVjC_qu9EYnFkffkzJCq7F4PNjFT4lIrMvG8XM-abulvli_e0Gzxyj-32nO9U", "lat": "49.413794", "lng": "8.650476"}, {"name": "Vereinsheim TSV", "url": "https://lh3.ggpht.com/XSkqBeQxuKumYXCn5tzCPqeofEGJB3LCpIhE4JArnECaLeOxHg2dkgJzRq6dRN_8DHLzUTHWkGT5Vjx58sYvow", "lat": "49.414839", "lng": "8.650110"}, {"name": "Sportpark West", "url": "https://lh3.ggpht.com/eGTFipKnZI2XQLRhrsJszdWX9c1uUYI9-o8qAKPxdfeNXE9cAQDUNXNR45sNNpR5AVXcS4n__WBl2npdS3UR", "lat": "49.414049", "lng": "8.649426"}, {"name": "Sport Center WEST", "url": "https://lh3.ggpht.com/6ByJkpw4N5s7TiPa--kFeiQ6U6LY0CN9CaJC91Xqq1LpPrsp80IdY7d_9pcA-xHSHE5Tx7-jHwGjG3lpfDO3", "lat": "49.414257", "lng": "8.649410"}, {"name": "Art Wieblingen", "url": "https://lh6.ggpht.com/AccjprlvmCJy5Z6jKzmEzjnfCDg-UpvLUfd2qrdARMaFaoaVCaUur0KjUq9xwAk5bOn8J25iTcc7KYa9xcsTcw", "lat": "49.414314", "lng": "8.650005"}, {"name": "Pulling Bull", "url": "https://lh3.googleusercontent.com/rBcEmWnfa1OjJua1-RbQTtf0g1FrFUmPySUyFUhvh_E1Hphru_q7TNTTydH6tLi4CL36qBaZwwknB8wwEqvAQg", "lat": "49.410578", "lng": "8.654983"}, {"name": "Kissing Birds", "url": "https://lh6.ggpht.com/1gNvzjEQDoAOyX9tSTsHSwigK4rWWcIJMOi-2-QLkdViijs1TevzSRgy5gG0AKRK5ECz_aSYFM9A4v3Dv-KH", "lat": "49.414927", "lng": "8.661043"}, {"name": "Ochsenbrunnen", "url": "https://lh3.ggpht.com/6w7bnL-QTsCmF1aZoL9i3urDNhTVz5VN4sRSHyzhGutYvn2X-o2IFkdqd4C8G66Zs7j_O7Kk5mnwFNOs-Pml", "lat": "49.410296", "lng": "8.652163"}, {"name": "Mice Mural", "url": "https://lh4.ggpht.com/aw8TvKzWO4k2C1YKs01vy2MWRMbakuJjnGt40_MKALrvj08aI7L5TQXm8XUguEAJoJFEMEb2BVVeGyvCTm9Uqg", "lat": "49.415230", "lng": "8.659422"}, {"name": "Adlerstatue", "url": "https://lh4.ggpht.com/RMh1aoEOgpJWgshkJL-4N_aVw5Ws33BPOUxncgQP-Bq4t68RcRHGNzPcAtLR79FZTlG-NEOYoXORgLiMFJjm", "lat": "49.414974", "lng": "8.659540"}, {"name": "Stone Elephant", "url": "https://lh4.ggpht.com/XhvpVGaIxE-p_r-fJP9NmMARMxRAgjpoBt7KDuca_kOIvLD9uYGCHVYZWzGzK-ViASsKJzJa0qyxGXBilTfa", "lat": "49.415313", "lng": "8.660565"}, {"name": "Rizal-Gedenkstein", "url": "https://lh3.ggpht.com/WMQE-82MCgm6sSFBhYzt-KB2XCjKJLAW0JsWLJzIpdz-Lo5RCrmJ4jDrE9kQ9FXo2mYDUnISpjr4MjnMTcAmOw", "lat": "49.415190", "lng": "8.654712"}, {"name": "Resting Lion", "url": "https://lh5.ggpht.com/MLNSBRERQKqrfmYLzNK5hU3RYxhNvH4NC3tc00sgDATVcK5j0bwEng8qngxk7TcOpXYlR2prBdLsuLjzeelMnA", "lat": "49.414266", "lng": "8.660542"}, {"name": "Wasserkarusell", "url": "https://lh5.ggpht.com/lnsl2_jhqoNAnMNglkY_tH3z7DfhRw7BDyGkRrb_ZReOwKIR5QjFqRfNf6bXuXv4MAypjlDlA7x28Nt9JFd3", "lat": "49.414048", "lng": "8.660857"}, {"name": "SRH Campus Sports", "url": "https://lh3.googleusercontent.com/VuwqngLyw2jS3v3QTc-qhXLFp3o28DT3twhs8jlbepgzRZITFjry1uWxAuLtLP_YKZKJItlgqHj769VHrQp_", "lat": "49.412639", "lng": "8.653284"}, {"name": "Tower Playground", "url": "https://lh4.ggpht.com/KQMpeW5prEl0qFpvihn_BNT1zCb1l8dbcRiR-eYHLbvZVFUQ0tuH79pvkzRgv9i2Px26XaHi0mTI9SJMesu_ng", "lat": "49.413877", "lng": "8.661164"}, {"name": "Heinsteinwerk Heidelberg ", "url": "https://lh4.ggpht.com/yyU5B9ZraVxzMAjmwMaRBiljtqi-DodKYNY835qkjEuQDq95ARsBDF42pHNGrqfr2SdkpvP6VNp5A9HbVxMm", "lat": "49.409412", "lng": "8.658970"}, {"name": "Mother Love", "url": "https://lh5.ggpht.com/6O1bwTNc7Ozr_OYJbxq0M8ssCBcLnVBZUxB2H5zSeMDPQ_GCziZkKWwkyFNR_Pruoj-O_xCdxCQOmCaZbsnM", "lat": "49.414950", "lng": "8.660713"}, {"name": "Panthera Tigris", "url": "https://lh4.ggpht.com/IHv0OvaDluH97htN2FJDfy5HaKKciIaSq3xzuKY8EPi8C4qZbFesoFWT0KULIppfIBs8EPEtEZiIFQ3b_xGqHg", "lat": "49.414421", "lng": "8.660298"}, {"name": "Turtle Statue Heidelberg Zoo", "url": "https://lh3.ggpht.com/JpiG26BMFQ_04mJiDN6SKMPk_jt-hVpFF_uuDsRAi5dr8O8ZfhnT1Hh5dbVOz61lPf6soNFZQOyGUE6kWJA", "lat": "49.414393", "lng": "8.661936"}, {"name": "Huge Spiderweb Structure ", "url": "https://lh6.ggpht.com/Z8yEgJL2l42Tby2mzIkosyiJbm02ntJ-Q9a81cVVlV9eaRVvrkzyo6_zQAotfXXqQwq_mb7D3nWjp8bDVqkxxA", "lat": "49.415113", "lng": "8.652226"}, {"name": "Steingiraffe", "url": "https://lh3.googleusercontent.com/6VPhPzud_JnYW_QWq2uQqAqV9u7ekjexE2UPFpFCUfSRan6U1-reU_ZHeBaODNrCV9QI0fm-gJSQdFegy7Ugew", "lat": "49.415116", "lng": "8.660091"}, {"name": "Skulptur", "url": "https://lh6.ggpht.com/sNPRsBiQQcjB5TQPBv42d86Y06o5isgFfuNzpfJmwvTq0MNkiOHmmnntlnFxw7yXBbRjQAeU8-qqiSS9t90J", "lat": "49.414730", "lng": "8.660935"}, {"name": "V\u00f6gel II", "url": "https://lh3.ggpht.com/qg9NTKat9ARIknCqw7x8IjjybRudD9oFcMGH6eyJvsOvvr8l-50_a--FKLXrg1Q7lwvooQWOWRUW0eQMOVU", "lat": "49.411406", "lng": "8.659628"}, {"name": "Mooswippe", "url": "https://lh3.googleusercontent.com/fKQQ2sUO-3U48oA0iTjxDf05GaSKLuHfBq4GTjzAEtPxBLBwRxVO_x4XnnHLLxxta1rAui4BCl2VCbhr1-PL", "lat": "49.415183", "lng": "8.653356"}, {"name": "Aldabra Giant Tortoise", "url": "https://lh5.ggpht.com/h6tJ2C-4PSxcEA6glCwEZPj_L_geCMX4-PzwEywL1-uvEoCnvws9EsBoLxUIihxGMcMNPqOqA-gmZj670vl2", "lat": "49.414122", "lng": "8.661825"}, {"name": "SRH Zentralbibliothek", "url": "https://lh4.ggpht.com/hPTYb8hyexULiUlV3wqfbNrwwHOEv6p0GecW4EALxrNXGv1fhPMrFb3ZFXCeLomkBRxO9xobid2WV0_8UajS", "lat": "49.412376", "lng": "8.654781"}, {"name": "Proud Lady", "url": "https://lh4.ggpht.com/lm-kAlJL2JDhV2hirTw3xOJ8j3pV1kURM_Q4XJDxS28FvhcaaVzd_-fPd35ioN19e6tS6mXAGgRPcchZ_d7IJw", "lat": "49.414603", "lng": "8.660098"}, {"name": "Gericht zu Wiblingen", "url": "https://lh6.ggpht.com/fXokrr9AisoRioM57aIweRwUzKIungRciI_Bi4t5jM1Ln0yyFEJkK7pVP_bqbuelUY0tMK32dB4lmFN-FWDr", "lat": "49.414430", "lng": "8.655052"}, {"name": "Waterspring ", "url": "https://lh3.ggpht.com/QJK0DGavXJvK2O8nj-NOhMbZYqObkDSdqTuWBB1458Cuqbj_C_ithk_gtgNMftGZUIlEGbtVtdz6DKhZWns", "lat": "49.413068", "lng": "8.653727"}, {"name": "Stone Figure Heidelberg Zoo", "url": "https://lh6.ggpht.com/yOkie8uakmzEfUmUGVmT5v-ZCXhEQaXeMGNs8R4ox9cw12HDLUcgfq83qkPyJFj9P69k6_xi0mj8fPxKjLht", "lat": "49.413719", "lng": "8.661429"}, {"name": "Red Panda Habbitat", "url": "https://lh3.googleusercontent.com/pLlXdJ3B3r5QaO3HbZGwpLuXvgS--m9KE1dOUyofxRz6k_M0H_sTQPewsBZ1mvPRIuyPCAS3g3ueNKeAq8GX0g", "lat": "49.414698", "lng": "8.661990"}, {"name": "Bear of Heidelberg ", "url": "https://lh6.ggpht.com/n8MoMJVxd9sj4nNnfvVfRPlvzzPtyBMjLkY0yQIPyhO3kkj-SZTDGLvitH_vzocuixYGJmeUCTwRbm_M_6HK", "lat": "49.415206", "lng": "8.661719"}, {"name": "8.5 Meter Schlange", "url": "https://lh3.googleusercontent.com/pv94QeK-IZkPCjQZxDnKUAQ8aNz3ER334ILPjgmniMCoXolmWBpZnERNKEOvtge3PpRhLZn4RtS1I6U308Aitg", "lat": "49.414850", "lng": "8.659268"}, {"name": "Falcon Sculpture in zoo", "url": "https://lh4.ggpht.com/qlqGMR9PntTj3boFYKa74dm1YZ4e-FA5DcRh-dP7s3kjcQFiE3TENkw2iPMnza0KBLcQ7VCXDvkAmEFMYAqHCw", "lat": "49.414319", "lng": "8.660931"}, {"name": "Tanzendes Paar", "url": "https://lh6.ggpht.com/K1g4PijgKrTHye4Wp2W-XvovAGrVhkWnvMnZssUBGM7PaLYuPmCFaCZ-qi8qpIEN8Lfw-2pIQRmaD8txpRE", "lat": "49.414281", "lng": "8.651570"}, {"name": "Wilfred Tembo", "url": "https://lh3.ggpht.com/2h_E3fL3jmasY5jAvAW80js5biJxrf80-R9-itt6HbGsa_xk6vZpkqLreeVFl-m1at6Q8OAUSe-ngMMXrFo4", "lat": "49.415054", "lng": "8.660464"}, {"name": "Eidechse ", "url": "https://lh6.ggpht.com/Ux8sX6JKCHu-P4K4MTN1tqKFpHhIxpfohIYnxEfROm62yOMUxmwgip2wAGohZGefUUixDBNg2riLarKfEkyb", "lat": "49.414730", "lng": "8.661425"}, {"name": "Wappen Ochsenkopf Anno 1976", "url": "https://lh5.ggpht.com/vph1kpKwb7EmMEGP9YaipeHpcoJo4F7oDpEzhHRQVetyDD3uEM7VwdS6u9VXK-0TdJQvbmEh2g4GnhN5kwM", "lat": "49.409914", "lng": "8.652035"}, {"name": "Sydney", "url": "https://lh4.ggpht.com/ZsPVmFXTKtnuEJb7zVi8zC7B0TuZttbR5FdDVj9SpIMgpAlsvxsHkF4Hxpltb7OJJtCTKRsMOwabGdX2AAmN", "lat": "49.414248", "lng": "8.661216"}, {"name": "Skulptur Menschen im Rollstuhl", "url": "https://lh4.ggpht.com/yDKlg1Vf2ohRHrDd-497qsdZGnlxwcblMp0g9FoZ8Mp8YSCiQbJpSjN8YTZpOMlI5inL6uZ9iEbVlVwaAEE2", "lat": "49.413963", "lng": "8.653060"}, {"name": "Winterg\u00e4ste", "url": "https://lh3.ggpht.com/atjflzY7-YCpXz6nkZCfhVgQIQBzye_Swekw43xSIiZ9zlab8tI9lFT9O1jUBcOqjMwYKOuoEukmyZZJ-sI", "lat": "49.414430", "lng": "8.655350"}, {"name": "Singing Birds", "url": "https://lh4.ggpht.com/Ac-MTJI96Y-Chp_htmFSXyzd5f1SX1BeUEjU2uRBTZbp3HtHrc8r4I-_egH6AEWpsCoR_dbWvC-TrqpQU-Q", "lat": "49.414835", "lng": "8.659797"}, {"name": "Tankturm Bahnstadt", "url": "https://lh3.googleusercontent.com/UVYnpF5M5Qy50idvZ7_-yH_SZjG0lP87-LyitwGXZEWXBESd4z9W0pIb7KscIPRQl9vk3kpt7IZNH00HV6iY", "lat": "49.407767", "lng": "8.659395"}]