{"portals": [{"name": "Auto Auf Container", "url": "https://lh5.ggpht.com/Hc2sR-hvXOoHhpbqwqjlstAnchQQ2OVxX1Pjb4xq11S3IurfKJXBW38dgyHjL53ekVRPCD_g2gxYyxIn1KKssQ", "lat": "49.427262", "lng": "8.636538", "stop": true, "gym": false}, {"name": "Skulpturen am Reha-Center ", "url": "https://lh6.ggpht.com/pIL1K-ziXEdeAyskg7Wglh13rqZN4bOyYvKgVGzsb3699kJJh-VTI3E3E1pEfVswz-RYF6GPRti2Z2qAJp8", "lat": "49.429479", "lng": "8.639205", "stop": false, "gym": true}, {"name": "Lang Holzbau Portal", "url": "https://lh3.ggpht.com/DkpZ73nquxTv2FbAV_76Sjv_8lTpBzzhDGbGbkjUkbdxhwQpOTFKlKKmb4qwB_Qv5XJrmnWfnciHafWuEMw", "lat": "49.427402", "lng": "8.637735", "stop": true, "gym": false}, {"name": "Wandmalerei", "url": "https://lh5.ggpht.com/utQ8VOZ8q0UBwXW6e6wK9sifNZd_Sa116QULzhAK2NhdRq33aeLuKJFf1arSQbSVUFGJUr1aZvKiDlPWv0g", "lat": "49.428256", "lng": "8.640362", "stop": true, "gym": false}, {"name": "Klimaschutzprojekte Heidelberg", "url": "https://lh4.ggpht.com/QnzZ05JBiiunqCoTX20apukurK-eLKIBoRWcyRB83nrBtAqj-DYz-f0fYk9HsYPj-2UFaWuqTo-8L6iKyKU", "lat": "49.427639", "lng": "8.640094", "stop": true, "gym": false}], "regions": [{"level": 14, "face": 2, "i": 971, "j": 6740, "stops": 4, "gyms": 1}]}