[{"name": "Yay", "url": "http://lh6.ggpht.com/K9wmr7BdwTaCnO6EiPZGucOtTDEu6TlUoZvqdlVOll99yk4H41cwaInJvecODih3lW5yk8-usu7DVvSBsfhvDw", "lat": "49.382760", "lng": "8.660590"}, {"name": "Zentbrunnen", "url": "http://lh6.ggpht.com/Jf5RBQZ-ZvonD-xlQ33XJzu0lJ7pA5mU6ba_DsHsok8U5t9xIcB_zX1I5N3HzrwiNpYHj82oqqOCGt3KGyw6", "lat": "49.381182", "lng": "8.660058"}, {"name": "Fort", "url": "http://lh3.ggpht.com/AmsIlCEmO7QFrM2sSUFHaBi-nEv59f5KBt9eIktebqgK4zH_tV4VjBJEwKPeN-wb_sZPptYnpqyywn8WxWMu", "lat": "49.383379", "lng": "8.659812"}, {"name": "Einsamer Elefant", "url": "http://lh3.ggpht.com/RLgkpt606dF7sEnMje9zQnL1sICYJpxtERcDNYQs7UgK7Cravvs2mrDpSHbJ7Rt71hR16v7cr9JxuAHFilmS", "lat": "49.379193", "lng": "8.661541"}, {"name": "Spielplatz Glockenzehnten", "url": "http://lh3.ggpht.com/5lbuQ2OClEDU_JXmILWFBcoa9NCt78-tizLbFkUUnkYm69H5-HRu_bDBy63sSXdS1UJLThdNxEH7gnVWcnk", "lat": "49.380524", "lng": "8.661004"}, {"name": "Foyer les aubes", "url": "http://lh3.googleusercontent.com/dYLjcGAQduYoltFURXJQoOX7OhNbd6mfRVlD8fZLFrZE9glk-czzwd0PTppBXwLJA2fny0yb7IWOKUbILXFVVw", "lat": "49.381196", "lng": "8.660351"}, {"name": "Broken-hearted Message", "url": "http://lh4.ggpht.com/K0wYcEv3y8DXGQ608M9IDXKu_P-S_KQ31uaQ2zAMzZyaemNrPhFPKMlJIRGQ0ifTu49f6D5IOaHMiDvJsM_k", "lat": "49.379501", "lng": "8.664050"}, {"name": "FTK", "url": "http://lh3.ggpht.com/0R5_J0ik-es66zYRpB8yiKqEwXJPQCAkBzV_nN1DqnDG4yaR73n6utED4ArKvRJKviDI1SJbRia2jk8axV2-", "lat": "49.383610", "lng": "8.662510"}, {"name": "Das Rohr", "url": "http://lh5.ggpht.com/XUYfItTqm7xEoQdnQQNUEILmY6GUDLTYXtzL__XcEnYOinJjPTH9nlfE4ywTfVdxPiDkQrf76U1meTNcWxwL", "lat": "49.377819", "lng": "8.657398"}]