{"portals": [{"name": "Infoschild \u201eDie Fischkinderstube\u201c", "url": "https://lh3.googleusercontent.com/V5lLyE2GVL_QTvVstwSc3K682XPyCJvN1JGpf7VuB1UiBm8lVV-oPT4WILUU53zR1PO4dqe2woaR8HV3Z7Lh", "lat": "49.455051", "lng": "8.608235", "stop": false, "gym": false}, {"name": "Infoschild \u201eDie Flachwasserzone\u201c", "url": "https://lh3.googleusercontent.com/xuO6phZA3zC0N9X3TqPDXXbHuSyIwCreTnm0g4ZzTGVY-XFIzf7TBd7V4WSMN1LrXnjqP1MRpOHWshjbmdKfeQ", "lat": "49.455498", "lng": "8.609266", "stop": false, "gym": false}, {"name": "Gemeine Esche", "url": "https://lh3.googleusercontent.com/CgT052Scb6cxnd0WyoC-Y69kbVfeAzt-YvYt1q9YdWYPChXe1_mgGniSdxgVhA0J4ENRuMaCOIMKNfLrGos9RQ", "lat": "49.454937", "lng": "8.609528", "stop": false, "gym": false}, {"name": "Stiel-Eiche", "url": "https://lh3.googleusercontent.com/QezjHZhJF73FM7t82WHt08h-bDGqeVL7IgyPAesLBcNiEOjmzKPQ7oGKsBtpPJK1KB1J3pGW9OfAmySvoHe1", "lat": "49.455922", "lng": "8.609028", "stop": false, "gym": false}, {"name": "Infoschild \u201eAlles flie\u00dft\u201c", "url": "https://lh3.googleusercontent.com/vVxcCrcIJMCtazumV-BUwYKdz0WIQGFmuDVmq2QYFOPHO_IusfPF2hcHsjpSA20mh1_YPBMEUnWNKm25KJgH", "lat": "49.454575", "lng": "8.608527", "stop": false, "gym": false}, {"name": "Infoschild \u201eDie Flussaue\u201c", "url": "https://lh3.googleusercontent.com/zkyEYoQ84TZGqZxssyS_s1hnOr7s-QY5dBkGuRpnHBFp_PH5AjUDyEISBRbT7KtVcZHnDrSjoy9z-EjWSRLY", "lat": "49.454201", "lng": "8.609024", "stop": false, "gym": false}, {"name": "Speierling", "url": "https://lh3.googleusercontent.com/QgG_1JPsQpsgIH234z-afoKc2sksCeD7kk5V7sWNUhT29QlddpSdkYss-174sNQRzuoKNjQBEkun780gI1r9", "lat": "49.457882", "lng": "8.607348", "stop": false, "gym": false}, {"name": "Diamantfasan und Guieneataube", "url": "https://lh3.googleusercontent.com/K5vBRDDFeBGajiv98uFEUcXR1Uys2p2XgoOokeRWMz70xQA6PqB77Abco97VnGZoOV0ZvbFSF03Io0kxi1YW", "lat": "49.453357", "lng": "8.606430", "stop": false, "gym": false}, {"name": "Frisch Kinder-Stube", "url": "https://lh3.googleusercontent.com/5UEmPRY7mHcGlzV7OPcKDu5Nwa8iqOEX6pw7LYgHKiVTdf6ud8SEWiT7MGj5IsPfLBqJt4TfCLbH9UmnmLdW", "lat": "49.455588", "lng": "8.607699", "stop": false, "gym": false}, {"name": "Schlitz-Birke", "url": "https://lh3.googleusercontent.com/Z7b1akGWz5-cSHH0j_wWjB8QReL8nQIKUXEsctq4vVRRTiDVhyuSepQ7b9kV9fZ3-50ws2RNh8kWFpX-TYOw", "lat": "49.456794", "lng": "8.608623", "stop": false, "gym": false}, {"name": "Infoschild \u201eDie Ufersicherung\u201c", "url": "https://lh3.googleusercontent.com/CfRN3chIiH50NapK5wUfaRTxfgAtsXgAZy5pt4Gb8qvqvnPuzU7Xqsm0jbpjYCaxoB_mHui9LRiH4j-VaIti", "lat": "49.456444", "lng": "8.608777", "stop": false, "gym": false}, {"name": "Infoschild \u201eInsektenhotel\u201c", "url": "https://lh3.googleusercontent.com/j9ReSfPp7zuS0a_GlS-bFFLHZqktBcgRAjlaKJ4fRfHC0D1TY3Cy1SVpOPpmbq3vY1YmPdQcJr3SPoBVAig", "lat": "49.454602", "lng": "8.606341", "stop": false, "gym": false}], "regions": [{"level": 14, "face": 2, "i": 976, "j": 6746, "stops": 0, "gyms": 0}, {"level": 14, "face": 2, "i": 977, "j": 6746, "stops": 0, "gyms": 0}]}