{"portals": [{"name": "Brunnen am Rathausplatz", "url": "https://lh6.ggpht.com/I9-_PpaxnxKRqMioQdxXNC4G-0RwxS83Z_nzVVELTI5Oo7zzk3sY0MPqmqhSEtUrHOOZA9fOlXIMVXVo7a1U5NTt8Xv3-azbZJx2pUoOhzpYJVGyPw", "lat": "49.379193", "lng": "8.691537", "stop": false, "gym": true}, {"name": "Rohrbach Monument", "url": "https://lh3.googleusercontent.com/T0eHCcPKgDq_TzFna4lV_4ZNafrfTbhXPv85H004vtICDfanYsQ870xPcsK0FZUu42BDnyegZKFppTXd0n8P1w", "lat": "49.380146", "lng": "8.690774", "stop": true, "gym": false}, {"name": "Brauerei In K\u00fchler Grund", "url": "https://lh3.googleusercontent.com/V5TWkiZRpOHx90FbAOgZrViMIOqgjTQIYuzwnO-n9N96o-mUCMxpCpRQYwpPYyGPY2fnlKvwDzshSpVCS2xd", "lat": "49.378720", "lng": "8.693432", "stop": true, "gym": false}, {"name": "Statue", "url": "https://lh3.googleusercontent.com/49aLJAwkAPersogAqBdoslCq5TbpUBo1B-FWi9QZ_bMbqYGwjyATSynRXA3t-L8unhHzcM_xLJ4wQTmUxbKnwg", "lat": "49.380337", "lng": "8.691205", "stop": false, "gym": false}, {"name": "Ehemalige Synagoge", "url": "https://lh6.ggpht.com/S6P3Lea5cbhGFgSIH67vPfwM7tOrSRmG0yN-T9vw73XUxssU-AeIJybgAfQufIG1S-HP4iWQWcc6G-Uoi18QH1OQttBTKw-IV1IhfF1gfhjLDlaUvg", "lat": "49.379258", "lng": "8.691263", "stop": false, "gym": false}, {"name": "Stolpersteine Rohrbach", "url": "https://lh3.googleusercontent.com/MbriXAFasD1BoRl4kdESx_87RrZO_S88GOFSngd3JVnafrxWw9IheAPz849niN8wcMJ0fBQaaED9uCAXUCAO", "lat": "49.378772", "lng": "8.692120", "stop": false, "gym": false}, {"name": "Buntstift Mikado", "url": "https://lh4.ggpht.com/BVFadkjmZ83_haRbc0AmJ6_a3kOeKVpZAhYvEVMGyvtVHA8rP2W14jLwcivpVpCiFXmSZh40-skj-U99wvtn8g", "lat": "49.380207", "lng": "8.693220", "stop": true, "gym": false}, {"name": "Schulhaus 1890-1891", "url": "https://lh3.googleusercontent.com/1hHoxFksporZSMvuhg-PUhFN1lSeR1PMAe97Btk7BMuG-zNroXcAdYCsVZwntQ3XYg3a6JceoZ5f7RFHtfeF", "lat": "49.379996", "lng": "8.692428", "stop": true, "gym": false}, {"name": "T\u00fcrmchen", "url": "https://lh3.googleusercontent.com/EnirqnqOQV6b6GemZ9PH8-6whLHBryPsHbtb61gfUiGJ2r4Y3NZjRjUipYgqvwWJexBxnxToPP94nFh3ioT1", "lat": "49.383800", "lng": "8.691996", "stop": false, "gym": false}, {"name": "Rodemer's Backstub", "url": "https://lh3.googleusercontent.com/2D97b_KFMUvqu-g_qA7IYF78Q7yFtbGCQZzvhaW56BFo5nmq_3-b9las-9cVtS4JKjQlPqV1A-E9mk_VpW7kfQ", "lat": "49.380387", "lng": "8.691530", "stop": false, "gym": true}, {"name": "Wegstein ", "url": "https://lh3.googleusercontent.com/BEOan7AYj-yp23Y8KWkkioaeU8eJEsPPDiovowzdtKOSPVASV4OMhB55gaHuHccjAta83m622PJL71d22wEqYA", "lat": "49.381381", "lng": "8.702164", "stop": false, "gym": false}, {"name": "Rutschturm", "url": "https://lh6.ggpht.com/Y-xx9ZIfZx_LU7l3QJ1M9Zk3XxArZNSPlHeaL3wbZyzps8ltxKZwAQGGVh-f1IOi-fGuhB2oRnnr39lhiC6gpQ", "lat": "49.376339", "lng": "8.690717", "stop": false, "gym": true}, {"name": "Die Liebe H\u00f6ret Nimmer Auf! ", "url": "https://lh3.googleusercontent.com/wMPWYf2vh4abg81XEDNMtPvERcHgC-Q56dmxRvECYPB9KHzalRUhkg7PxCvhZb-BPyk4i71E2NcVSBBKSBVAMQ", "lat": "49.377198", "lng": "8.694823", "stop": false, "gym": false}, {"name": "Melanchthonkirche", "url": "https://lh4.ggpht.com/qaM9x32xvhTcDFP8N_Pf-qQhdPgH5TtljE3WDaqnd6Ys1IGLeEFJc_AadVT5e6SHSBoqMEg6YUj6QzRFtK81", "lat": "49.377169", "lng": "8.695260", "stop": true, "gym": false}, {"name": "Turtle", "url": "https://lh3.googleusercontent.com/AgK-q6OgL_8yMFRnV8jEr68De8bdZx3oa55zFsxY4zcXi1qTVqcILN-WHrAvP0SJq6TK9DuPivSuj2akV8_-", "lat": "49.377928", "lng": "8.695077", "stop": true, "gym": false}, {"name": "Heimatmuseum Rohrbach", "url": "https://lh3.ggpht.com/oeYE19czNblnszR_s5Ioe4jrWblYlBWxv3cUpvDUYmFMgE2wov3Xu9CjqEjq1UsKXopcJHXRpTDTrQMbcir8", "lat": "49.378095", "lng": "8.692987", "stop": false, "gym": false}, {"name": "Rohrbacher Pers\u00f6nlichkeiten", "url": "https://lh3.googleusercontent.com/BbaDe4J1KKN3FwX1kkO1VOIioV5En8Vn9DmOTHgRCkhqABxqP1KD4Ta4MbUAtMHXBdKWK8eY7h-bmTTv", "lat": "49.374894", "lng": "8.693336", "stop": false, "gym": false}, {"name": "Rathaus Rohrbach", "url": "https://lh3.googleusercontent.com/6-GQEjYfRKjg_d_CjM1e_xVmwn5yh7owk2ck4_2CM7msKINcfoJw5PZspw9_qIsd7QeljgOSAsrPv9PmDY8", "lat": "49.378479", "lng": "8.692446", "stop": true, "gym": false}, {"name": "The Linden's Shark", "url": "https://lh4.ggpht.com/Ap8VzKw0sT8MNdKzeGKrsFP9No3FwM4R8TwRzqYDHxK1CugIp23LUs2qSQIhxSf9Uv1jk-k1aySpXtri-LWG", "lat": "49.377916", "lng": "8.693033", "stop": true, "gym": false}, {"name": "Drittes Auge", "url": "https://lh5.ggpht.com/BpRutrns9VyX5_KP1mvJvSaDfYKJ0i47kV2Fqx3paE11-cHcRZq6xjRJMZ4Vwy5KgtQ1f3S18LxBCNQREdTKtw", "lat": "49.377877", "lng": "8.693443", "stop": false, "gym": false}, {"name": "Schl\u00f6\u00dfchen THORAX", "url": "https://lh3.googleusercontent.com/prLVdkYxwCKOZT6C7dNPQK8YXGgVhbY1lrPUl8u2-Gr2n3ndFRM84yy7bc1na27llLfQQGi114kvJvwrpZIi", "lat": "49.378339", "lng": "8.691016", "stop": true, "gym": false}, {"name": "Thoraxklinik", "url": "https://lh3.googleusercontent.com/_5JYzUZNYPq73luxe691Ai8PLtcnw7V0LO9l6CENuSlDLBK5ksbReq-sUGMX4Y2hfshhy1xRDSZAXzMJXB1n", "lat": "49.377179", "lng": "8.689933", "stop": true, "gym": false}, {"name": "Stone Hendge Mural", "url": "https://lh3.googleusercontent.com/JkFfaQHW9V6QC7SFajPUIiWJbZoJsaYHqTgIJmrc1ttDc5X-6p7J09095SSqz4chcb5mKw1jGmVyz0PV_yEHzg", "lat": "49.374773", "lng": "8.689357", "stop": true, "gym": false}, {"name": "Cross", "url": "https://lh3.googleusercontent.com/kk5KMTEuwTE_GWkO6pPnYcjiQVgqNDje5St1pPOSvzovHAHuJwNHQ4DFc8coTCEM6mUb5XHhuCjP31POFyo", "lat": "49.376749", "lng": "8.693734", "stop": false, "gym": false}, {"name": "Feldzugsdenkmal", "url": "https://lh3.googleusercontent.com/PYz1cAjZdOZa-pvlhYHS53OwAekAUdMcAFIWVO_gzVHeuazlgcfQNK6ug0-XQI3bXf727wEZpNAt6H4f2ShV", "lat": "49.376807", "lng": "8.694200", "stop": false, "gym": false}, {"name": "Playground", "url": "https://lh3.googleusercontent.com/wA06-6im7v93Z58H96Cpz6qcGJrf5ouSVbW18JlY3_t9TtyxJlhFdwpFF9tTTZRdY55PVJL8IjZYulf7XnvGmQ", "lat": "49.377567", "lng": "8.697275", "stop": true, "gym": false}], "regions": [{"level": 14, "face": 2, "i": 962, "j": 6729, "stops": 8, "gyms": 2}, {"level": 14, "face": 2, "i": 963, "j": 6729, "stops": 3, "gyms": 1}, {"level": 14, "face": 2, "i": 963, "j": 6728, "stops": 0, "gyms": 0}, {"level": 14, "face": 2, "i": 962, "j": 6728, "stops": 1, "gyms": 0}]}