[{"name": "Sportzentrum Nord", "url": "http://lh4.ggpht.com/wNxu5YIJlyf0oYTY08r0_-R7rSKhXG2ydrFUrahRQknt4GsVTYxpv0qL8UmW49pAjDy3H1a36GCKyTFKuaet", "lat": "49.425803", "lng": "8.661411"}, {"name": "Springer", "url": "http://lh4.ggpht.com/Rcnz-C_Ohz533vzs2MepaKSOW_CwBbsJ6qELBmi6Iaz9mLtGVe3i7jq7ehWwI_8_D8SAw8RbdAdfENnc015d", "lat": "49.424924", "lng": "8.656849"}, {"name": "Rollerblader Statue", "url": "http://lh4.ggpht.com/493JMRvNQBHhdSXxNSEr5h5ar68QUHoYj_rA97hi2gvOtUNVEMm60okHZ90rLYM9cIfKMmGMjIYRFmatHiyU", "lat": "49.422777", "lng": "8.659166"}, {"name": "Schwimmbadclub Metallkunst", "url": "http://lh3.ggpht.com/Egizubp4kgHlVOIgw-vZnJFBfBwlcTIhWfJ4rqaWqarhr9g_HuKrf4UcrM9H44ibP_TCQNaQRwLYYfAl_fw5", "lat": "49.420054", "lng": "8.656513"}, {"name": "Flederm\u00e4use und Libellen", "url": "http://lh3.googleusercontent.com/W_3uV6ToeeGNUBLXsoydx6REiYu25DAh6mDjCmjXgoRwe731UVwhHSzwiIGQ0tubYbrhLxgJwOuMiDaxAxg", "lat": "49.419270", "lng": "8.652591"}, {"name": "Steintor ", "url": "http://lh3.ggpht.com/DvTl_w2UNTytGAomYWGPA6B6WvUnqd_zZs_UQW4bZs4OFGczsv-YGzagTw2C0rB53U7QQ3-StfbVG_QVktEN", "lat": "49.421814", "lng": "8.659378"}, {"name": "Lions", "url": "http://lh5.ggpht.com/flveDVjWjeKx_pxO6dNLPQa4A97gRVC2xa2gxVX0dYT2frZqGFNMZHG5OnkttbkeqnQsQh1ns9xSQkHbOAhJ", "lat": "49.419596", "lng": "8.659742"}, {"name": "Tiergartenfreibad", "url": "http://lh5.ggpht.com/_Mz9V1hLp-H6OYYaF-CVF-hlWAuVrANLAmdg8aNQVRwQggvy7NxPD8ToCxV0wPmQ3nZmyvNQCO9spp4AQQdC", "lat": "49.420620", "lng": "8.658857"}, {"name": "Schwimmbad Wandbilder", "url": "http://lh4.ggpht.com/AQHZ7eWcLuWqBTml1g4ulSVLs44w6EB2JU3-M7QHpjZ8sFQAaAxDdZehmKGTaQN6fU23LzmOlcemGIUUwgG9nQ", "lat": "49.420459", "lng": "8.658114"}, {"name": "Olympiabrunnen", "url": "http://lh4.ggpht.com/w7iTzjGh6cl6P4SyYueol9JNtbDnfxTiDR3rxu4Wwa9pXoHaOc45P_bJv0ay4NqOWQzj87NPTS4ix5p00Fi5ng", "lat": "49.419485", "lng": "8.652087"}, {"name": "Krokodil & Schlange", "url": "http://lh4.ggpht.com/xMSlaQ26Fl-H6Qi4hZweoLYoCbBerBreOgqDTnz-KKPvyOZkJ7ij5xEsqhA_-JRg2XyalYZD9qllJiwGlHzb", "lat": "49.417960", "lng": "8.661223"}, {"name": "Humhole", "url": "http://lh5.ggpht.com/8teXog_0DZVBWDpn-9qi9t5YIfpmVpjXQEuo_w7_eaxZngqdx1u03qgQLkT8Z0i_-Rdnt3wj5AV9z6lv77wNicSTd9P_00Sip7WEZ6ZxZDe7hKs", "lat": "49.418364", "lng": "8.662937"}, {"name": "No So Merry Go Round", "url": "http://lh5.ggpht.com/f0y0NKObcbTWPkzfhmc69jWDfUU098H6TA9_oGisHBS3nr3HHm6wKhl8HiiI5UTCGVM6xLhevD_uEve_yMqEEcAi5fxTB7Li6NLe7FEVoIJssS0M", "lat": "49.418055", "lng": "8.663055"}]