[{"name": "Forstquelle HD-Rohrbach", "url": "https://lh4.ggpht.com/PeTy8I3sY7CpP62-0vaFizjTrlKoWkh07FGcyZ_mvbMrWfctsDLw4Q9zLI-wKQHFJmnljP0QygRz-c6t-x8SxA", "lat": "49.382020", "lng": "8.706430", "stop": true, "gym": false}, {"name": "Felsenbrunnen", "url": "https://lh5.ggpht.com/C-R95PT6ntyrCQi0KTfvFmjDR8CiMh1L4BON1--5b2RwuH6-rINTHrQXiLNYrlWsBGgSHYuvkAPdshZUTiOt", "lat": "49.375930", "lng": "8.705114", "stop": true, "gym": false}, {"name": "Boxbergs Wegweiser ", "url": "https://lh6.ggpht.com/pRjZSA0GFFtLVdCAbS67aB2boXpYscDD0LR1outw1VjN6kDu6PAWH0gneo85PAqXCuc2Npdbq0EfYCLW7xXy", "lat": "49.376067", "lng": "8.705888", "stop": true, "gym": false}, {"name": "Ev. Pfarramt und Jugendr\u00e4ume", "url": "https://lh4.ggpht.com/BeXke7xVNZSPhPw2CWu1pt1rW9NDSiW1dZ235pQYHwk0gtdDN5aRseZqDY-vKX4qUfvlgtBPlpIMV99__66s", "lat": "49.376991", "lng": "8.703514", "stop": false, "gym": true}, {"name": "Kath. Pfarrkirche St. Paul", "url": "https://lh4.ggpht.com/_VU6Zw25dZ66JxsnzkgMw1HFNHO94D7A8SJF7y7XUzRxFOvdqMf7-jNA80GMISQZPGY2tqwMUNQ5mGQkOIcy", "lat": "49.373752", "lng": "8.702830", "stop": true, "gym": false}]