{"portals": [{"name": "Drehfiguren", "url": "https://lh3.googleusercontent.com/JkWP39h4OafcjGDEMHA96WaIifG_Gwl0M7bqsFw6xhqbkizDYLpZrHxaAqPkwqTMalkz6Dz8NwePDaRR5alyHg", "lat": "49.401641", "lng": "8.729673", "stop": false, "gym": false}, {"name": "Achtung M\u00e4rchenpark", "url": "https://lh5.ggpht.com/jafTceArHJx6pYPLe9Y-6_YN38o8pkwAU-gwDxlkWr2vxMdHKIauoDrR4z1yI13DcIhWxtIkkomCB-65pfuAQA", "lat": "49.401207", "lng": "8.729538", "stop": false, "gym": false}, {"name": "Vogel Warn Dreieck ", "url": "https://lh3.ggpht.com/tP7LQ8bR5Vc170sXwP0aNFtuvkT8floECTlllZhOeC-T0a1k4Xh8budguCUHMsIrIUXPRclf2GneH7BkBSGF", "lat": "49.401405", "lng": "8.729154", "stop": false, "gym": false}, {"name": "HD Studentenwohnheim", "url": "https://lh3.ggpht.com/m6P8kvsLeHd3BD24aDU-CG3Udu710WL9wjaiLvDw1nZnOHuFE-OFticee98z8m5eVWKJ4moOEfeQc5VYbTF5vg", "lat": "49.402095", "lng": "8.728440", "stop": false, "gym": true}, {"name": "Die \"via Naturae\"  Stadtwald Heidelberg ", "url": "https://lh4.ggpht.com/iB7KOg9Zr_YUtvsRqN_Zfuc8bWQvahT1U17PV8hxFqNPxbsqbTbE9m_zzA9onYaHCxgTx3i49v-lNR3aMELx", "lat": "49.402268", "lng": "8.728198", "stop": false, "gym": false}, {"name": "Vulpius H\u00fctte 1913", "url": "https://lh3.googleusercontent.com/UNe4MwyjMkTej5pLLR8A1YfenZ6o3df0xLcehEqKlGPprYn68q0pseZmUi2o1Fwp7dknKHNDpr5YGcW96uIQ", "lat": "49.400818", "lng": "8.727424", "stop": true, "gym": false}, {"name": "Pilzhaus", "url": "https://lh3.googleusercontent.com/oY_sCz_azO3Rk9W0P_sBVjqK1NPmhkKZpTrihXJKWTx6q9KZuh-Zmmz83RnlIdt__xZuwSchh7m9M8rDuJc4jQ", "lat": "49.402231", "lng": "8.728883", "stop": false, "gym": false}, {"name": "Wegstein Richtung Sternwarte", "url": "https://lh4.ggpht.com/INHzVLt3be11b6KBdrswF_vBe--S5hbQPOtrDrGnZUK2rdZJL5edVdkUhQF2KcN_0I96jIztYk1CZGKNvNIlBA", "lat": "49.400720", "lng": "8.724487", "stop": true, "gym": false}, {"name": "Der Wald - Erlebnis Pfad ", "url": "https://lh5.ggpht.com/fnWoCaiCkEvYIFf-cLJ5dEwf31qj33h1dv-DrmLQJbeGA08aciigQQ9AA3NEL6ubRqbAAsiU-VwcAnJWiRo", "lat": "49.401762", "lng": "8.727901", "stop": true, "gym": false}, {"name": "Landessternwarte Heidelberg", "url": "https://lh6.ggpht.com/sOJwmLJBgihinHTNFdWU2Z0iEL0k9wKHrUkm4DVzyJZsROUkqeMMFYQ5RGdW2MRM6yWOdZg9fkSHOfWmYbn2", "lat": "49.397819", "lng": "8.726072", "stop": true, "gym": false}, {"name": "Max Wolf Plate", "url": "https://lh4.ggpht.com/CrwIyrDPFeTErdkydtN_ml5UZLLWRsfq57PLTGlwgs-ilC0sbWUcq6In3x4gEVpXROCDszhdMeoSErkBgU2LiQ", "lat": "49.397980", "lng": "8.724718", "stop": true, "gym": false}, {"name": "Sternwarte", "url": "https://lh5.ggpht.com/RcvbocKp7gimCWVQ0iztj2OVywOjlVud9kTrrFjhZZkoTjUgPvMerfa8r49NQxbHQLijfJa2z0KOpm4EWY0e", "lat": "49.399293", "lng": "8.725349", "stop": true, "gym": false}, {"name": "Max-Planck Institute for Astronomy", "url": "https://lh4.ggpht.com/KxroqqfbyMSmu3o-Tz3RtmaNLIomQljNL2dLBSgSWu-oZg4lsLy9MKLJM0fatvDwvcA9IJojimE1GpE2BvkflA", "lat": "49.396637", "lng": "8.723307", "stop": false, "gym": true}, {"name": "Haus der Astronomie", "url": "https://lh4.ggpht.com/NTYKaO0hIq62ulqSNG_CWl5F-M2NK3DedORrQTpWjH-l5Y880I7doc6LvaIEfh0f0OAVVccdQybWPYUHpz7hnw", "lat": "49.396252", "lng": "8.724450", "stop": true, "gym": false}], "regions": [{"level": 14, "face": 2, "i": 967, "j": 6724, "stops": 0, "gyms": 0}, {"level": 14, "face": 2, "i": 967, "j": 6725, "stops": 6, "gyms": 1}, {"level": 14, "face": 2, "i": 966, "j": 6725, "stops": 1, "gyms": 1}]}