{"portals": [{"name": "Douglasie", "url": "https://lh6.ggpht.com/_SZrD8oJzAXEfwgXID8hSJChv1heraNoe3cMR2zwOgu3ZuavCmRN-672UXEqzqv9Zv_lNASVVbbX1Rv6lrXG", "lat": "49.393487", "lng": "8.709340", "stop": true, "gym": false}, {"name": "Echte Mehlbeere", "url": "https://lh4.ggpht.com/ob5cAAFyT8Js6obKCJUmmTsRH-s3rfKG77QLr7j5afAcurSr3WdqN4MIAdSs9aESE2sCiCYKcGKi1p912S4XSQ", "lat": "49.392871", "lng": "8.709130", "stop": true, "gym": false}, {"name": "Pagode aus Stein", "url": "https://lh6.ggpht.com/Xb0Q-j3it0lIIM2vomE8DFecHRF1XlbisrKzh-tdx8b1DiqCXWfNqple0TpZr3vuKc5E6U9_p_kP_TUFVzg5Cg", "lat": "49.391751", "lng": "8.708022", "stop": true, "gym": false}, {"name": "Kaukasusfichte", "url": "https://lh4.ggpht.com/s4OdTwAA_qhLazlhFTrV6AR6auX01neISkwUvUOMtLT_dSFSJMkoAtWDe_dZnHxO70erzdow7uDA4mazMn8", "lat": "49.393302", "lng": "8.709902", "stop": true, "gym": false}, {"name": "K\u00fcsten-Sequoie", "url": "https://lh5.ggpht.com/oTt_H8uwwi6-1EGZ1AmQFLXYaQ2p6y7-iEbNOFhVpiDdsaLzr2TqwRjAbiy8dsGuIHbUdkxRVoyxDEM30hPa", "lat": "49.391496", "lng": "8.708528", "stop": true, "gym": false}, {"name": "Max-Planck-Institut f\u00fcr Kernphysik", "url": "https://lh4.ggpht.com/paBDjvU-EYP8c9rcLoY8Y_xm5gHULchsriSJU-AyhzsaepRTIZr6Y2oPHKHwhUI40-q-Ye_g0nuuF4HrAeuGig", "lat": "49.388906", "lng": "8.707779", "stop": false, "gym": true}, {"name": "H\u00f6lzerne Schriftzeichen", "url": "https://lh3.ggpht.com/M22eK2cYuUhyLc-JIYNySU5TVAaYWMrvRhhM5FroIWZpfk8-ZQ_cdjTxgCGUaVnLZQYLe93qOcS_uDmrvRSkow", "lat": "49.391763", "lng": "8.708332", "stop": false, "gym": false}, {"name": "Kaukasus-Bank ", "url": "https://lh6.ggpht.com/4U4uRRBfWkyFD3yUPr4YdLCquTQjy6VdFbOiLfWjzEE71i5_-jeNOBHovjdgQ-79tVya8p_11K95Zbwm6GS2", "lat": "49.392662", "lng": "8.708637", "stop": false, "gym": true}, {"name": "EMBL ATC", "url": "https://lh3.googleusercontent.com/XIJhSJ6XlvaWLF1guBwAixfdqwzJ6rQEjHtS0fW2WHLOPJ8KTUrqwVUeMz8URQ5KG2HJNVwS1SzZNOnLOo73", "lat": "49.384130", "lng": "8.709460", "stop": false, "gym": false}, {"name": "Operon", "url": "https://lh3.googleusercontent.com/mDcGgV6Qq7t0wvGj_7i_qE7nK5Dl4V_4XMFw49q8hKe8zVVll9P2Zx1MW7nPoRCZvQJapOkAOgTCOx3EEtBB", "lat": "49.384263", "lng": "8.710069", "stop": true, "gym": false}], "regions": [{"level": 14, "face": 2, "i": 965, "j": 6727, "stops": 5, "gyms": 2}, {"level": 14, "face": 2, "i": 964, "j": 6727, "stops": 1, "gyms": 0}]}