[{"name": "Oberer Schlosshang Weg", "url": "http://lh5.ggpht.com/SSBY-sse8Jsu1QIswjIUJG8SKDhYOjU1Y_3PqJ22h0g5tZV3NSuBP7cQjXfjIZa-5g7rQ1bBkt4weRWjkE8a", "lat": "49.407495", "lng": "8.728090"}, {"name": "Via Naturae ", "url": "http://lh3.ggpht.com/NOFJStQXUOMT9hV0tqL9YD8sjf9AO_a1kfMnCHJhSvBxiyXWNT2X0J-lTrecuquSXlDsDgJMvwb-1jO1s4rJ5Q", "lat": "49.403458", "lng": "8.728401"}, {"name": "V\u00f6lkerschlachtdenkmal ", "url": "http://lh6.ggpht.com/OMIcvGnEvWHAIbsarqI5noLxcvaeWTBhhnqsoSUjE69jMaSyY8FrpZ8fYlPT1Ax6IVLA4zwiaL48o30bzkKx", "lat": "49.403647", "lng": "8.727948"}, {"name": "Naturpark Neckartal Bis Odenwald ", "url": "http://lh6.ggpht.com/3qji80DCOuMlhmIV4fBQ5AEtfZrCZky6ywLHpXTshwF1banMfKm6udY3V1nep33n5-wppb0eRwKAS_NO38eDGg", "lat": "49.403156", "lng": "8.729643"}, {"name": "K\u00f6nigstuhl Walking ", "url": "http://lh6.ggpht.com/Y7n57ZmB8XM5iOtLLKYylD6oldyIDWrPEROhEYzDOR69-83AXXgsGP9noz33Qmtg6UlxIhd9tUegIkjZyhga", "lat": "49.403196", "lng": "8.728546"}, {"name": "Leuchtturm ", "url": "http://lh3.googleusercontent.com/BV4aZ34lj6P34sv4UwpzHvRGGAfp8Tv9lbBrIjIrlcfNjQ6674ClK3r6Hd26CjE-77c3iCo-2o3EEY3bot0", "lat": "49.402598", "lng": "8.728900"}, {"name": "Bergbahnstation K\u00f6nigstuhl", "url": "http://lh6.ggpht.com/sFlcJvsaEvKTYZ7WmCBkNoO6IAf8ILBumXhY1Bszp7pZ7GmIJKJ0qDUm1mJ6-7zE82fWGbkxOtUEiSmvHD0", "lat": "49.403507", "lng": "8.727134"}, {"name": "Typ mit Korb", "url": "http://lh3.ggpht.com/oE5PVjdXIxLdxYXcaXjJvaacw7rJrTlw_YCIwvDw4YjuNEgodFg_HeIjxx7GMmxM2rZcavJV_FlZBwdPdwpn-Q", "lat": "49.403254", "lng": "8.729166"}, {"name": "H\u00f6henkarte K\u00f6nigstuhl-route ", "url": "http://lh6.ggpht.com/GqgLTBVOfchmE-uAfdIAyDJ8HaAemmPPyqQtGp6SJEfBTfWX5-PPqHyWnFXf-kY2TW5Vez86UkKZu1v_CShc", "lat": "49.402770", "lng": "8.728466"}, {"name": "Tinnunculus Falknerei ", "url": "http://lh4.ggpht.com/OAVnxOiy2fTIoGDTFV2jKA34c6xPnx00La8fBMV41Gda_Lm0I06jJKjXa8gxtHtkZRpO_iUP-JQFHuWiNaee", "lat": "49.403778", "lng": "8.728163"}, {"name": "Trampelpfad F\u00fcr Kinder ", "url": "http://lh3.ggpht.com/gUVR9Fw9yv8zk_3-Oe1tN81AZNIIOjFnbskV1UmoWnvZEoaNovGA3rIl0KiCGU1MyzmJpF6HUn5VtAdrTG2r", "lat": "49.404102", "lng": "8.729212"}, {"name": "Aussichtspunkt K\u00f6nigstuhl ", "url": "http://lh5.ggpht.com/11fjN1i-a_2ZMersuPI6C496_QBf0EraneMbGibJCZuTG9X2O_4JE0fCZ1ueHecYoebHr65Swl-Yt5nJf1rf", "lat": "49.403940", "lng": "8.727269"}]