[{"name": "Friedensdenkmal", "url": "http://lh3.googleusercontent.com/wpMvXYydpt-yNUy3WuLq8uUWbl-qfGB-YfJSYH0XZSCGRopmCAOimURfV4kGB6a7-ZV7JxM3yz4xFK3PN2k", "lat": "49.452081", "lng": "8.672720"}, {"name": "vanitas mundi", "url": "http://lh3.ggpht.com/Xp6qCNPrgCJ9KIYp8IR8mryVVT3gt4Pj1op34Qbd7Pvh7o8zVIV-R9bHmtf4q0dHIt-DoCyR271jEafQWqEL", "lat": "49.454053", "lng": "8.671875"}, {"name": "Elephant Sculpture Dossenheim ", "url": "http://lh6.ggpht.com/_ZTSFb82FLWdW7_x4KgE4Q802frxCbThNCm20GmT0JW1JOlAdUHXov_Xd8qb_IjgjfAWp8BjjLk3Fqqg-rwq", "lat": "49.453584", "lng": "8.672787"}, {"name": "Dossenheim Nord Cross", "url": "http://lh5.ggpht.com/vV15YB6pXwpDu31lnjlV9ZZh2W-BuwhOb1n7jhSVqmQcxIunRgyZSj9uN1OSJJ052aF6cL9vPq744NieNRhdszsJ7vSpGqM8FIDackyDPfuX6GIe", "lat": "49.453482", "lng": "8.670984"}, {"name": "Tr\u00e4nke mit Pferdekopf", "url": "http://lh3.googleusercontent.com/zDrxDiWGxLecWpths-Oe8cTulw7Evq5ynDOp5fHhhUNLp2MckdV7ARGHe4g_BnGFeBRpsxCBLcZEpqH2DnF5rg", "lat": "49.456539", "lng": "8.671776"}, {"name": "Geopark", "url": "http://lh6.ggpht.com/i_4KMoP-iF1GAAxvBALHh85lUEui00IyY1mKmks5e4bicUcB1SuwNoQprEjqxdi0gpq-1HMfrQoHrjbE7mZH", "lat": "49.456374", "lng": "8.668239"}, {"name": "Dossenheim Klagelieder Cross", "url": "http://lh6.ggpht.com/e3DoTuBeGwT-7vrwzW7CYbvX8bOC0O6W7KiKocCnPUWdkEHyEVYe2QBdB8eUfIL2S0J-W6xlBktyc6LpQ8gBD44XFLhP59a0h6b5RrM6VXWz_P6t", "lat": "49.453583", "lng": "8.673537"}, {"name": "Stone Men Overlooking Tracks", "url": "http://lh3.ggpht.com/7CVXOCwhiyPY4bA2MY2vhok-ruCrAGPA9nVzNfLJxogD58tuIF1B7DaIX4G9qXHixU8SPv3lX4eGm1Fu1t4m", "lat": "49.454606", "lng": "8.666824"}, {"name": "Erweiterung Friedhof Dossenheim", "url": "http://lh5.ggpht.com/SiAnP7zB-wzGQBrYVu-nnIZr0meHSNSWCsXQ_7c3ZaSQqvhGtBMZE4YmjJzyMPXhhWK_OH8Tba8MvEh8j0c", "lat": "49.453635", "lng": "8.671824"}, {"name": "Fountain Dossenheim Post Offic", "url": "http://lh3.googleusercontent.com/EaIHR4076PqrhUvCjzM3y2WyfWylguja4eFz88sze9rgqT861zc4Bu8LRZm5dY874MpX7fGXIRst65P8C6o", "lat": "49.448593", "lng": "8.670078"}, {"name": "Grabstein mit Engel", "url": "http://lh6.ggpht.com/0L1VqCQeD1Rw4maNihduRl8b3J7Ayv_LOftWaEtwNyGMv-jFyP99yDS8Ox2opia_dRR1dZ-QHYN_k77ig6kF", "lat": "49.451605", "lng": "8.672706"}, {"name": "Cross - Dossenheim Main Square", "url": "http://lh3.googleusercontent.com/2_Cn3wZ9HLwNc3vkfOqgtogj00Dv2zCS_JzaL4HwEWVR_RPKX8oMTyeCRaIK_gtJKjNo7DlqzfK_NTeHrdPZrg", "lat": "49.450344", "lng": "8.671895"}, {"name": "Maria Statue", "url": "http://lh4.ggpht.com/p8eY6yBiq7-y-KyMbdO764nNBEoxGM4CVVdKhyh8fQa3Omy8jhjDG2X4C8HuWEXn9E23GFIiXHyN0gOaQe0W5YdlO4W-XaWMZFfr4SerNSnqn_4G", "lat": "49.449420", "lng": "8.672318"}, {"name": "Dossenheim Maibaum", "url": "http://lh5.ggpht.com/BnUkRtsgJv8UvKBsdhtwYHEx8QVZy1N-kq9bvMy2nlDVdRTQLYwdCRTiAW4c7NyrrwFV2hdMjTJDJ8kg-hr48DKwotoAG21ZOQJNdWAGsbpaa1xu1Q", "lat": "49.450879", "lng": "8.672459"}, {"name": "St. Moritz", "url": "http://lh4.ggpht.com/cJ1UGmQ_is9_V0rQBYDMfi946cigjcf45cOv3HQVogPCQoPTGjC4gsilpbbPEFl4sRgC3OUCVzC2gM39ZJ0J", "lat": "49.448640", "lng": "8.671512"}, {"name": "Maria Hinter Gittern", "url": "http://lh3.googleusercontent.com/Z83IIkpbCIVqdDBDESV1IzqRWNeyN4M3FRbB-6aKxu4PipyyPrh6QeCYHTe5YHAnc6TdXv4GzrDO2JufgOs", "lat": "49.449021", "lng": "8.671324"}, {"name": "Der Pfarrer", "url": "http://lh4.ggpht.com/z992iFNv8rFFqNm8CSvZvDtGfADxqUACb_ZSuGpPsyCMW8QNXF6Os9tNpO4wCiTGN4LVNdEGL3Tlz64sNHstOw", "lat": "49.448616", "lng": "8.671813"}, {"name": "Friedhofskapelle Dossenheim", "url": "http://lh6.ggpht.com/KwPr-x0LBaeVuiThcbzUz4MAdF8WCcZSz1KMx32xJZYXswvesktP6GwtWPU8xqmoj7vhGd1SSXSzF_QTSOMV", "lat": "49.451809", "lng": "8.672215"}, {"name": "Rathaus-Wappen Dossenheim", "url": "http://lh4.ggpht.com/IwIKeKpxxO_0Sltk7XAept-0Bqc6hnYawn37vPCDCM05Ue1miMv3_iLU-a7IVi7BLnPcUejVS3eqSEDHrW4", "lat": "49.450941", "lng": "8.671792"}, {"name": "Quarry Worker Sculpture", "url": "http://lh4.ggpht.com/p0QPivC4sZXxHIvYsOHxI-0tIz0hG8Xlo0vGVLL3Z9lG0WsVgBw8bFFFE1vyxYwS_nDOgXOYTTFlodLCtsbe", "lat": "49.450788", "lng": "8.672196"}, {"name": "Dossenheim Le Grau du Roi", "url": "http://lh4.ggpht.com/BPseb6y3Cv-rkN6s8NYma8Yo0dJnNbQmBAFInA79FEK3CrXZs1cJzvh4YAFp50V5i-oQdWgT9ScZ0JjKG69iek3lV2g6D93ADku2zqDsb-l4S63l", "lat": "49.450990", "lng": "8.672225"}, {"name": "Dossenheim Holocaust Memorial", "url": "http://lh5.ggpht.com/NZZkSxi2aZqzPZ74GFJ0mNVuUhoYCo5dkz9qnAF2o-XqNuYsFvenJ_YuGEmRrpouNb5Vi_AJqk9-ehEhrIvPB0cO17JVsSIP4jQkAmH--OVHLoM", "lat": "49.451166", "lng": "8.672535"}, {"name": "Vaterland Denkmal", "url": "http://lh3.googleusercontent.com/wNXgsTNb6hNXZBwNJ7oEKvOZzQzu-bU2iqK8PA0t7RDkaL0awhIxWuqCrvaD6ifUTVT4GQnvCjAT1X9Iqzo", "lat": "49.451121", "lng": "8.672857"}, {"name": "Grabmale Heckmann", "url": "http://lh6.ggpht.com/kK7NFBjftkBV4njz1JlYqqOG1ydiHcpOZOXUvTBDHVPIjRtkkAS6TeqPJpw7ihgHEWHT4k5qJMOlBvfTL_I", "lat": "49.449484", "lng": "8.669029"}]