{"portals": [{"name": "Bunte V\u00f6gel", "url": "https://lh3.ggpht.com/xFNsl-ZBHd6eBjBVZ_QjJy74F_Lh7RFgYpcHc5yhKv3OiHbGbLEkfygfPDhvdPWOPCQNQ4VMl62UDOVBs-Q", "lat": "49.415423", "lng": "8.662396", "stop": true, "gym": false}, {"name": "Animal Art Erdm\u00e4nnchen", "url": "https://lh4.ggpht.com/i0Ud4rArksinBOGjgkSRx_a0NHwMtznt0fkKRPmKL6Sxy20RLFWKmvAyuArozJrTjZGSewwC7YhioDobEW6f", "lat": "49.416711", "lng": "8.662861", "stop": true, "gym": false}, {"name": "Affenfelsen", "url": "https://lh6.ggpht.com/po4LtFVWPzqJVEb5yKJ_tABHh3wxwkd-s2sl3N6YrqE3vyzD-VFm6k_cjTMxo9iZRq6AaLdGLllIKxYoDfShwkl3gji2gstOpoBTd6psyzGhPGGJ", "lat": "49.416415", "lng": "8.670993", "stop": true, "gym": false}, {"name": "Blutbank", "url": "https://lh6.ggpht.com/dVKcHJ1pwYrxiJpoc33kjlvCAoxE-clrvXZoceCgoXYg92DzvUiFXi03neD2dGWqvyGeJ5kkR-B57pB9JMdo", "lat": "49.415842", "lng": "8.670137", "stop": true, "gym": false}, {"name": "Amyloidosezentrum", "url": "https://lh4.ggpht.com/zr1p1WvqoTNJeOjT78WsAWP8F_LhA9Nk6tIaMu2YL4CTW4TiR8UwHa--xd1NO4En4vY3vmlQ_WlkcV7LklLE7g", "lat": "49.415430", "lng": "8.667149", "stop": false, "gym": false}, {"name": "D\u00fcrer trifft Einstein auf Reisen - springend", "url": "https://lh5.ggpht.com/y4hz6EXN2w4sXDyjDICjr93Bia7p7yxgjg6BzqG1_kKkh3JCe8Zm3T8Q31NLxzJVGnXUjD1VEV9wwq7qA20", "lat": "49.416666", "lng": "8.673055", "stop": true, "gym": false}, {"name": "Three Squares Gyratory", "url": "https://lh3.ggpht.com/UOa4WdpHpnC7zlY-a_LD46L1TG3oZo2Km6emyuispaqO14tzuWjToJLmYwztAIzHBJXOIuU1pWtUB7r2VeUj", "lat": "49.416717", "lng": "8.671198", "stop": true, "gym": false}, {"name": "Kunst am Theoretikum", "url": "https://lh5.ggpht.com/bDka8VWZGpITtHp4xWXV8mFKPUbmTP_zqOmqrqZSJhxxSJH-ZZsxeb5EM1F2fi3QVB45fKjmFyEjxEuV7sI", "lat": "49.416375", "lng": "8.670526", "stop": true, "gym": false}, {"name": "Wasseranlage mit Springbrunnen und Palmeninsel", "url": "https://lh3.ggpht.com/EEp4qt83yx4ULa78iUZqL4pXkMBYQGgqQLy5jbLZg_Xi5gXOCyXHDj-7AY4tKuaOGUlhnAH5yTYQS66PFPY", "lat": "49.415414", "lng": "8.671414", "stop": true, "gym": false}, {"name": "Blaue Boecke", "url": "https://lh3.ggpht.com/1dXdq-Ob_tk_xVEC4Jyc8VAg_uyLtLjb27GV7ak0vRK3U1-wsWY7Fc0nm1_HgVkQwNWqpRGRC8GHZhMp1leCmA", "lat": "49.416871", "lng": "8.670263", "stop": true, "gym": false}, {"name": "Theoretikum der Universit\u00e4t Heidelberg", "url": "https://lh6.ggpht.com/66mvN9VwJAuKMXiyx4y1ZUIA7Jsaf0e81-oAR6qNBffV1XMTckEui8RfeQZZVsbQL9A6uO1wylaI_sH-S-2LkkkVYPjDOq9j97CCrJ_I_MrfOAQ", "lat": "49.416726", "lng": "8.671118", "stop": false, "gym": false}, {"name": "Botanischer Garten", "url": "https://lh6.ggpht.com/IUvyWoDaYDGFe82Zv4o80mqSCJ1FABJYRmSXrGYeh1dcKStKjrnVY7vCUCPSAxCvHy-WMWEb6kRvVLWGIUzC0Q", "lat": "49.415573", "lng": "8.668422", "stop": true, "gym": false}, {"name": "Wookie Graffiti", "url": "https://lh6.ggpht.com/CwtLpKJL7Nf3h_ze-XbtzLZ6h2VcW3UhNk2BwX4LLbTDTvHB4FrbVLPR6ybx7fgGu53ZmAL_i8j4yAkwL8es", "lat": "49.417034", "lng": "8.671110", "stop": false, "gym": false}, {"name": "Kirchhoff Institut f\u00fcr Physik", "url": "https://lh3.ggpht.com/qOa8LF8iVkjJgvIhA_2ZdOqS5fk4QR1XNuAwNrNN8nqIkg_4BKupKXh6kCmed2SfM2eEDvhwtpVOPItQvlcc_CPHCRKwdgLAX6TtMvKydcDK5NhS", "lat": "49.416668", "lng": "8.672024", "stop": true, "gym": false}, {"name": "D\u00fcrer trifft Einstein auf Reisen - sitzend", "url": "https://lh4.ggpht.com/_D5FhTi8QjjYZAiNFhckedBewDaFdcI0Ys9ug0cDKPu7GK6ABHmSWNRV2SuT2ZVo3VkD2WFrTsDN7ICiaEbfwwGjJueBSztheU_5pRle8Ir8LxU", "lat": "49.416579", "lng": "8.672768", "stop": false, "gym": false}, {"name": "Schraubenmutter", "url": "https://lh6.ggpht.com/M8nnTfhnVVRk-LCpq9bH6oHnOdJ-U8wbz-iyP0f_u4HZTxsyPhHVtXHaXGOtSoIjxmf7FbbaOYeEqwTm4k5E", "lat": "49.416382", "lng": "8.669621", "stop": true, "gym": false}, {"name": "Theoretikum", "url": "https://lh3.ggpht.com/jmnf_uBVjXR2XiSqj37Ef4Vhq8wyB6V3TywWoHZwFTTSYO5dJmvEhE7EMuYAi-bMLYZ7pUBeI7CAQzSUCJ75Pi6lUQHVp3KI5jXmWWo9mlOiXIuL", "lat": "49.416375", "lng": "8.668089", "stop": true, "gym": false}, {"name": "Famous Doctor", "url": "https://lh4.ggpht.com/k3NyRiCdwOgdxoqJ1KuNaEEM_nnybr4_R319TG_mtHdq6IanQ-GklKtO4CTs1N2F9rzLcyABRBxVyzwTkLht", "lat": "49.416740", "lng": "8.663745", "stop": false, "gym": true}, {"name": "Tropenmedizin", "url": "https://lh5.ggpht.com/zcMJ2UBF9YbPt3XT9IYmY1cdaeBUoGneXv0pvDZhyqZKLbOEv_om7_fnmkcYMNcOnqjDu1hZ7XZGtZ7OjkUUBA", "lat": "49.415687", "lng": "8.669416", "stop": true, "gym": false}, {"name": "Zoo Fountain Heidelberg", "url": "https://lh4.ggpht.com/jH0JGNxiSyFm2NLsk8fu7SNYcztfVvo_haYyMYqZvtdYkrn4rNJttZzr1HF22uF3AMu-hzGJsaGvhdGANy2_", "lat": "49.414876", "lng": "8.662286", "stop": false, "gym": false}, {"name": "Bushman", "url": "https://lh5.ggpht.com/-e48QTGLmPsfCuumS0yHIRvk04uEfuwql7w_a6OCU_n21p1IZQuJOyJMQ1325OrfHgSbTtqiblt7dNi2AyMAQg", "lat": "49.413872", "lng": "8.662166", "stop": true, "gym": false}, {"name": "Kirche Jesu Christi", "url": "https://lh6.ggpht.com/8APb_mKHjIHFm8YaIn1p3VMrpoQNrr9HQGRzUU3ZU9clj5LZ3pcTCxOhKIrmg4feLtsHzbdEkmvpLrYGlbvavg", "lat": "49.409130", "lng": "8.660737", "stop": false, "gym": true}, {"name": "DKFZ Sculpture", "url": "https://lh3.ggpht.com/ajaYgGJPJ8klg-nJnuHrTmrUlKRfepIqM_SIo5Fh9C025iUuIgFEuWMCou6C7s_G2w9VUgDPyoB4sezNRnJ1RxZ31YCBA1raO3lRFfwOzQsM0GLa", "lat": "49.414582", "lng": "8.672198", "stop": true, "gym": false}, {"name": "Bellini Brunnen", "url": "https://lh6.ggpht.com/SZ2fwWg_oC26c2dw8k5XItxfsvABDuEQjnaZRF5hWC2VDhpAm_KU9DcFc6LZgy4hLX6E5EZ0SQg7nGKg-KihVw", "lat": "49.414090", "lng": "8.670759", "stop": true, "gym": false}, {"name": "K\u00e4seplattenbrunnen", "url": "https://lh4.ggpht.com/n-LoCk5Rc_ib8ntjdHGoVvEXn0d0vwwL2VWZ-aYmRnPHCg7P-xT7Sy9is3uCH-HcyisScdtfLc298YSpn8nx", "lat": "49.412579", "lng": "8.672835", "stop": false, "gym": false}, {"name": "Botanic", "url": "https://lh6.ggpht.com/E5HkBWNcmqlXqbkAomO-YShDQ-5vbtnO2j05zhVsLkPhQjkA2rSXEHKiXIPeNMG5Z_qh0g6EwvxHx_z1r-48", "lat": "49.414872", "lng": "8.669282", "stop": true, "gym": false}, {"name": "Ricky's Imbiss Club Graffiti", "url": "https://lh5.ggpht.com/LpWr3HWvZ8ldfaO-fUNufe_rnZBBGoMdwbAElKraBU2rwxelUFT1aDSDL3RR2Qx1QS9PkgFYAuth6PMy1-aT", "lat": "49.409469", "lng": "8.668462", "stop": false, "gym": false}, {"name": "Caf\u00e9 Botanik", "url": "https://lh6.ggpht.com/8K_xOotMmSgVNCyKzaSsjmOCRaHi-gKZtc6ts_m9MMkL63h_jKRDCH6XaDNneOcuOd0Spxx5OYc97jh3qL8h0smVx-z5e_yBvVw8Q_udzBEOJpO7", "lat": "49.415194", "lng": "8.670326", "stop": true, "gym": false}, {"name": "Green Croc", "url": "https://lh3.ggpht.com/tA28BtuBFYuD2snN5oENPNJlxgUydv3TvEDaYXL3oe4vjmLKOOz1_E0CvKulTEn_QRS6goPZ5NZROynZmFE", "lat": "49.409579", "lng": "8.671514", "stop": true, "gym": false}, {"name": "United Couple Heidelberg Zoo", "url": "https://lh5.ggpht.com/u7BtFz-HfqoEGJfmv3BLqF6Xv37Wre0BDc3JGbzjr8RagfIJw7LAgmsUGCGllEEtEJwuimvgPuY6Hi_8CJNS", "lat": "49.414167", "lng": "8.663803", "stop": false, "gym": false}, {"name": "Bridge in Park", "url": "https://lh6.ggpht.com/0kQVVrZiQ9Rpbq5Gw_6sPoQE0qV9s3dYsjm1U3qG4osoa4reGWogOBL6QPr5pzjjKnP50kR2c5tNwQZDYZI", "lat": "49.409228", "lng": "8.671510", "stop": true, "gym": false}, {"name": "Durchbohrtes Geschwulst", "url": "https://lh4.ggpht.com/hC8RF_6E5mM_wwDH6xqrwpvQoRYWGGjqB1m3fqKzBI_AW0sysuCu8EO9sRA7SSVhxBCJZ9Kp_XcudWUjbDQE", "lat": "49.414132", "lng": "8.672327", "stop": false, "gym": false}, {"name": "Pilz Am Neckar ", "url": "https://lh3.ggpht.com/Q0BTMv0MEYMXQxQDd4H6AEpmCdy5qDDewnPy-TDPr_hKLSVhA0hPypbsaAl6XI0MSQ7DzVG7lWuCaj9yot4", "lat": "49.411488", "lng": "8.672176", "stop": true, "gym": false}, {"name": "Pig Sculpture Heidelberg Zoo", "url": "https://lh4.ggpht.com/6lzgRU9lpSjGL8lYsdhODMmTo_kk4UKx8tAJng7zFe9SKSjrRB87XC_iJ1TribgMp36GQ6zScBkxldYcJbKkqw", "lat": "49.414428", "lng": "8.664254", "stop": true, "gym": false}, {"name": "N2 Turm", "url": "https://lh3.ggpht.com/Y4dfcr_5dNEny9NsY66ebdbeAxQaAKFZuwyAFWn_27ngVQHklw7ZWqi0RTdRqUtjcxkXjT0yIGGeI-ujTWsU", "lat": "49.414871", "lng": "8.671378", "stop": false, "gym": false}, {"name": "Traditional Healer Heidelberg Zoo", "url": "https://lh6.ggpht.com/mrdoMnRlsan18OHhy6p6EVf_2J_0Xd8gWlOVQK3ml8-zizI9H-ZngEeBt8EjHQEUAR_tOwdwCynCJ3xYV_VCuA", "lat": "49.413936", "lng": "8.663623", "stop": false, "gym": false}, {"name": "Botanisher Pond", "url": "https://lh6.ggpht.com/awlB-I9EWMt5G1fJEISKy4WDI3HWTnDKHNV99S7xX84HKFX7SiPJBEcCVwGof2nFIEicrQJp0_Ebi-lozs-Y_xi0MWoinsiipKnfRqPupNOiSF8", "lat": "49.415022", "lng": "8.668012", "stop": true, "gym": false}, {"name": "Elephant Wall Painting", "url": "https://lh3.ggpht.com/AxHZ9enGQeROQVhT9IKmHN5hT4GRcwwxuzes3XvdIoIgxOjV7oWPEor0apltp8SQgxda_l2vT_zvLZHSVlA", "lat": "49.414750", "lng": "8.663579", "stop": true, "gym": false}, {"name": "Flat Fountain at DKFZ ", "url": "https://lh4.ggpht.com/FNnSwL5RFVnZ69evqJ3Thqg2goivQjsr6lXfW8ZorjwtyTPBy9myZ_OeEWfUsjdG_fRPeZwdko-PV2gRs_FE", "lat": "49.413982", "lng": "8.671961", "stop": true, "gym": false}, {"name": "Das Shrike", "url": "https://lh6.ggpht.com/mq_nGaurnx1ozEEG9K9cpGXJyk8vkmUwDxTnNQ5YnU_oofSqmjBdmAdwKJn1A_NercGXbgYAvxfNRH6rrWE", "lat": "49.409459", "lng": "8.669016", "stop": false, "gym": true}, {"name": "Tiergarten Heidelberg", "url": "https://lh3.ggpht.com/y2yUxDgk_vIQWEVRgVF2rIFVPzCJogUFYiQCcHCosm4FXqXsjjbm4ffMedmJHHe_Qzv5UHjdkdeud5oTVEgl", "lat": "49.414931", "lng": "8.663344", "stop": false, "gym": false}, {"name": "Heidelberg Botanical Pond", "url": "https://lh5.ggpht.com/bh5yqU_54EHepGLEtXhK8pODpX5E_4Dv9wdI-VKb88yD7NeQ3ooodGdlJtFpzgtfgvv0uOXgQiW_DPCRSKj6Q6SoBTq8itVfhVFm0ic5-LEBllg", "lat": "49.415229", "lng": "8.669035", "stop": false, "gym": false}, {"name": "Fountain with Chairs ", "url": "https://lh4.ggpht.com/EOZ736A-0n8go01R-HIl1SC5tMFzTdDsid3eeolW1gqNYmBUpxsYfNyY3sMCpviyZzKpywuKa_aP0M4f_B0N", "lat": "49.412946", "lng": "8.672205", "stop": true, "gym": false}, {"name": "Zweiter K\u00e4seplattenbrunnen", "url": "https://lh4.ggpht.com/n4gzAb0KjucyAaJ-qJcDEcNk_mn1RmNkwNraNXQW4H-gRGM1ReFpnSEqkeoDV2qDx0Z5XD1BoJ8-MrerHiml", "lat": "49.412561", "lng": "8.673452", "stop": true, "gym": false}, {"name": "Red Kangaroo Stones", "url": "https://lh6.ggpht.com/T6P08UCyWgYoOgiGj1kD7eVoXc6_aa9_tQanlPi0IYjfWIghtDBIriAdi6SuQ5bFTyrAECQrclW-9Yw70rs", "lat": "49.413899", "lng": "8.663077", "stop": false, "gym": false}, {"name": "M\u00e4usefenster", "url": "https://lh6.ggpht.com/_JcJsfuPzV-hGxEm6gC72dNc6LiUjogw4Yynxafw2wQj-Dc8TTwj_S-yzSYeuqPJMz5fuKvnUVr7_bNoni1o", "lat": "49.414153", "lng": "8.664779", "stop": true, "gym": false}, {"name": "Obelisk Im Neuenheimer Feld", "url": "https://lh5.ggpht.com/8oxWekv0FcEyGLJbRxBAHvt5ivCahrwhSLhZCQQ415kk8kOo7b4fNTxi7so8ahcL116PzdhkU2C12_0wiEI", "lat": "49.412705", "lng": "8.667658", "stop": false, "gym": true}, {"name": "Bird Art Wall", "url": "https://lh5.ggpht.com/yX06w-QkalQmdRxW8bl_58_y25ekdue_wcO0QbUzlleJdDMYB_QQsJSJnLPbod2RJXsgbHCh9GVPd3uMMKbKlQ", "lat": "49.411953", "lng": "8.668356", "stop": true, "gym": false}, {"name": "Naturschutzgebiet \"Unterer Neckar\" ", "url": "https://lh3.ggpht.com/9pP-G5Od53zQXjnt_r0HubTwhm-y1YDnpXLnWjfmXNn-Js9IPVocFjy7mafpH2droHFL7v5k7GFJ6F73Q8M", "lat": "49.409803", "lng": "8.666288", "stop": true, "gym": false}, {"name": "Biber", "url": "https://lh3.googleusercontent.com/ri_uLnyNQ-dRd6ZOyh0vJrRbga2Gaamn04zMJmwO1nBI5nYg9DJ_YnnjTgm3FdhbJxO4ggHwz3l5vcnJmyWg", "lat": "49.410472", "lng": "8.663094", "stop": false, "gym": false}, {"name": "Hippo In The Sand ", "url": "https://lh5.ggpht.com/QSUVhR0kQkLpYMLP8c2ctlHAehzs-ExAjye9tGMIIgbAsiYJkIgvZSdIdGtwDno4-RVLigwphAzmeBFJ0-wuSQ", "lat": "49.414823", "lng": "8.664163", "stop": false, "gym": false}, {"name": "Ignaz Semmelweis", "url": "https://lh5.ggpht.com/bKQ7rbsJjKqPI3CIKq_0qBe7x0l3bfo-z3Cz3eB79OnIRsQfLVCbyZYXk54JOJC1yOobgy6HdYxlUfXLqyiio8CHteHDwnEYbq4bO_zPvAyLLhAgTA", "lat": "49.414256", "lng": "8.668637", "stop": true, "gym": false}, {"name": "Wasserkreislauf", "url": "https://lh6.ggpht.com/amSO4sN-8g5NScQ04M_TcSBHFdIv3yZAGyYIwSO7zmT5kVJWzfiu5TyjlX4ZPdaj3UOIeHEXI-XrfYipcuE", "lat": "49.415152", "lng": "8.668350", "stop": false, "gym": false}, {"name": "Wurstplattenbrunnen ", "url": "https://lh6.ggpht.com/NK1W26AVy6dH82J60P9lc21K2VSjBMacoFU6qqtmX3y5HhthtbR2XxQV7Kf7paI2I9uu5s8jw9az2thSyVg2", "lat": "49.412169", "lng": "8.672270", "stop": true, "gym": false}, {"name": "K. H. Bauer Bust ", "url": "https://lh5.ggpht.com/J5veHsygud6F5BvtXLlngCTZwiSLWdNQu_FcoDo36_JXRqzPpKbMVnP2J7nCSpK9t6Jq-ipeQEcDk9SlULst", "lat": "49.414153", "lng": "8.671840", "stop": false, "gym": false}, {"name": "Stadien einer Entfaltung", "url": "https://lh4.ggpht.com/f0nlUqXNUPLztgkSa-0WEfUlFV00qmLL_wKEkAt4gjIwH1LZ5DGYzStDIOi2TLTkJBoBygG7F9uhfWYW7NQ", "lat": "49.415039", "lng": "8.671767", "stop": false, "gym": true}, {"name": "Brain on a Stick", "url": "https://lh3.ggpht.com/lHSkjjF00bxUW_yAN-sqyzc7hgPXtfuzkfffwZ79KSi7XiwB4oFCWM_VGbE-74eQQiIFMNNRXp7CCHMsqvLE", "lat": "49.414149", "lng": "8.671432", "stop": true, "gym": false}, {"name": "Camel in the Sand", "url": "https://lh3.ggpht.com/3Il1-YBB8M5v2jUuOrIm48yiGrkQFeP6mMVi6IhH6VObvjcYsDh4VLHXlzimfcEyRcnVxAOT9UBlC1fzPSqM", "lat": "49.414562", "lng": "8.663637", "stop": false, "gym": false}, {"name": "Rock in Front of Atv", "url": "https://lh6.ggpht.com/I4WlQs-q5klDs_TNUT72M6YujwJNEImopCeYL642yT98K1Zt3-AMj6DNahmM4uXNPCR8UgoxDKyWuNfozu4", "lat": "49.415211", "lng": "8.673110", "stop": false, "gym": true}, {"name": "Die Orthogonalen Br\u00fcder", "url": "https://lh5.ggpht.com/FVMkyqa2QDCU8DiJM9NfNkKvdI6dEnVKj796ZOsqUQa8jz-sdSDkrx5Kc3tNWaYeGyQp0exEvMlxNtme8NFl_elhBLln-beZjJhbBjkHqZoTyNlJ", "lat": "49.414990", "lng": "8.666163", "stop": false, "gym": true}, {"name": "Pilz In Der Wiese ", "url": "https://lh4.ggpht.com/Q8G7ErknM_VQYAu7ou7LzTaaAaDYQSEtiUIDCVxTN3Rxa8oAS3v5amMkdSsccCet0vkP2M8KPqFhRq2lbpcy", "lat": "49.412420", "lng": "8.668766", "stop": true, "gym": false}, {"name": "Dynasty Statue", "url": "https://lh5.ggpht.com/MvS7plttj-7U_r9XHc2jrAAC8_OMrnNrRQ0-AjC5bsijo_oMJsCbyE5tMolPxPvSWnV1XZrEh8VPX7xreDqO", "lat": "49.413828", "lng": "8.663946", "stop": true, "gym": false}, {"name": "Verbogene G\u00fcrtelschnalle", "url": "https://lh5.ggpht.com/gPPMRdQ9N5cc0i72VEkJ6F8fDIQGZl4BQPJEAy4is62Q3sl-DJ81JGV5F5_ZQYV1K62Oo9d6ER8CRjTxMuM", "lat": "49.414393", "lng": "8.670796", "stop": false, "gym": false}, {"name": "Parking Deck Zoo - Elephants", "url": "https://lh3.ggpht.com/Rn-OyKnMf_h06MINaV20I3YnL0WF2HBdTOv-vmtDGrOWNBHNhuNLVsBYj_OJtYew4JI0lGnix6B9rhex_oOHY54ELN3-b6JoGxDhc5nmvCsB_wlX", "lat": "49.415277", "lng": "8.663888", "stop": true, "gym": false}, {"name": "Stauwehr", "url": "https://lh5.ggpht.com/F9uyNz4YuQlGcdSPkWLY6uVtVsvOB0LjmlblZ1B61wUJB5-ihNSFBwZm2_hj7w-rSuONB1rdgUiwMnSJ4O-oj7zmMT3BZFby3t9vdO_WlqZHSTSi", "lat": "49.409556", "lng": "8.667965", "stop": false, "gym": true}, {"name": "V\u00f6gel I", "url": "https://lh5.ggpht.com/ISfh83N5XWSlLhoA-ZXM_0vhvvtLIxE4kmuPAUPqEgsKYDUvFxc1LleJvo65BkxK8A_0NA9Jn41Fee7QSjF1CA", "lat": "49.410595", "lng": "8.662661", "stop": true, "gym": false}, {"name": "Froschk\u00f6nigbrunnen", "url": "https://lh6.ggpht.com/N6oH94C0BmR-Sdg7CjzJ-XdlayDZNAeMW__D5sHHTea3kfmQbRcU8zxABAfmcz8tUQTx6HRn74iSltH9ERONdQ", "lat": "49.414662", "lng": "8.663030", "stop": false, "gym": false}, {"name": "Landing Eagle Heidelberg Zoo", "url": "https://lh5.ggpht.com/O41scLO3ga4FTEzV6GuNFl96DpKjUQwoQAdgNSmHdwXvOonpqxaj0JRvtqOthDmHLIMVrpM8UigU1FN0R2U", "lat": "49.414848", "lng": "8.662932", "stop": true, "gym": false}, {"name": "Ostasiatische Stauden und Geh\u00f6lze", "url": "https://lh3.ggpht.com/Ljd6UmCwNCou2XT0KOdIEYOLfp42kCRiUmIa9uLYqGgb_RmCY0gubKag07aUdTEUN_GJ_Y7d-OaMNbHMk1I3", "lat": "49.415180", "lng": "8.666998", "stop": true, "gym": false}, {"name": "Venen Aus Stahl ", "url": "https://lh3.googleusercontent.com/5zCjhAM_wiFbS7g219AauViRMckccAKj1ZugVwrGrnQAE4HTLitDi7j24bV4pFoEVnVhnTp4-kyl9vO_BQYqzA", "lat": "49.413228", "lng": "8.670575", "stop": true, "gym": false}, {"name": "3 Tubes Heidelberg ", "url": "https://lh3.ggpht.com/V_8PnWZY3rdg9QlnsuVIjy7WbF2xkr8ixkXrmthhvt7hPVNZqIqVwAAY5NvHiInDtJWo0NFty82Q_ntLi3tW", "lat": "49.415049", "lng": "8.672300", "stop": false, "gym": false}, {"name": "\u0422\u0440\u0438 \u043c\u0435\u0434\u0432\u0435\u0434\u0438\u043a\u0430", "url": "https://lh3.googleusercontent.com/vBKlDYIqB-cY8ate9mnndgtYUehhXz5xKDPwiKwtFXssFVqXvxrzk7PHpl0EElhUXGuyjoapUmcHjTuT5M1s7w", "lat": "49.415206", "lng": "8.663575", "stop": false, "gym": false}, {"name": "Werner Hassler Halle", "url": "https://lh3.googleusercontent.com/nKmubn7ZA7iQRfz_DctOlGn0oFKuZ_mxkTjk2ux4reYBsG48EDmmOK1GxSofYHjg_-ImVpjVmThhG1jsPvU", "lat": "49.412886", "lng": "8.663971", "stop": false, "gym": false}, {"name": "Solarstromanlage Zoo", "url": "https://lh3.googleusercontent.com/W-idzRlwMFNDNdcePa9BY54GAWc7PlQEtbRyRP7BuY-gzWO6nbbEnh3jYejdN30aROmh0Xi3ofRE5umSsulEcg", "lat": "49.413194", "lng": "8.664371", "stop": false, "gym": false}, {"name": "Still With Me Heidelberg Zoo", "url": "https://lh3.ggpht.com/kTPbvwkaFQMOF7Y_54C93M50LrCpodEdFTlYEH80L-9lK40Dvvpv90tkaEjfnX9MYDCHqF6MqTlzhl9V_ww", "lat": "49.414155", "lng": "8.663224", "stop": true, "gym": false}, {"name": "Stein Skulpturen", "url": "https://lh6.ggpht.com/1NxuRgwvlbXvjJhdKtivVtjlDnCyt68mV6bmFrLViY9_3es94mCurk-FoH-UmXrbk8_DXN2JSLt4fBrUgPs", "lat": "49.412293", "lng": "8.668320", "stop": true, "gym": false}, {"name": "Grow Up Our Daughter", "url": "https://lh4.ggpht.com/7O8lGVB1kJWs_A5MxBLmy8J2jFcjMmnt35QzrY_oKV80OdcbpB52CMSu4qHKXpvYo2j3F6AqtR12JgMTSq8H9w", "lat": "49.414114", "lng": "8.663430", "stop": false, "gym": false}, {"name": "Protecting Heidelberg Zoo", "url": "https://lh6.ggpht.com/EI7S0d3wIuqoqELKAPhjOMCFKpRhc9ibqA-6ETrYGxy0KEdNoARHswrU8YIG57MTR--xaIZEMcs2fOaMlIQ2_Q", "lat": "49.413650", "lng": "8.664137", "stop": true, "gym": false}, {"name": "Owl Statue", "url": "https://lh5.ggpht.com/QMjbJWFCHY0qfHvlAR6N9r9zbCQz2gNdbHeVAiPTv30B7bobRo66Ql08-U5ZQq6GxcrrBaMGXNyav419vGk", "lat": "49.413481", "lng": "8.662754", "stop": true, "gym": false}, {"name": "Esel", "url": "https://lh6.ggpht.com/1E71zmjCNr0ps-lCJfGmdLWGb8jPVSB1XpVhk9uzQKcwk-ThXXRLyeeEEa-lLg04AJHgCcQxaoTS64Ui3A_3SA", "lat": "49.414049", "lng": "8.664140", "stop": false, "gym": false}, {"name": "Zebras", "url": "https://lh5.ggpht.com/S2YKe98ufp6ht75suCl2CuKY4r7IMeElP1ldobiI1XYwAcfZxohIm3L0KMxQx-mbRNykDFCl69p1C7rRNpgA_ANgBCeB_fPD2POMB9XZqqxZBVd6", "lat": "49.414933", "lng": "8.664466", "stop": true, "gym": false}, {"name": "Quadratischer Brunnen", "url": "https://lh3.ggpht.com/KOEydjEDUyCIOl2-Xq2By0-e4I8h9OdAlEO_opbV7dTB44ZYyN0eBYmcrZQdTUSPv2Mu5w0ag6NgWWa4YmB7", "lat": "49.412177", "lng": "8.674000", "stop": true, "gym": false}, {"name": "Old School Graffiti", "url": "https://lh4.ggpht.com/OIp2YOM1FGz9Sg7wh4oVp8xg8hZJHFcQlURGbm_VR3AVrSj_P-5ILhe8DnDZYzWiDpSY-1clkYEJVDvBqsc", "lat": "49.414787", "lng": "8.673794", "stop": false, "gym": true}, {"name": "Green Statue  ", "url": "https://lh3.ggpht.com/Nt6ZNIh9UXsRzqMN1hiQyVV7IHyYEabrFaikf6B1BWrRYZXi8nZz5nHpzwYiObP2kN3Ydu1cSGLR71PWz5sx", "lat": "49.414200", "lng": "8.674668", "stop": false, "gym": false}, {"name": "Anlegestelle ", "url": "https://lh6.ggpht.com/a2hQki8kNm1btbT4BiBx5QDbAPFtuNhDuhJKO7nuBrx-NEaHTK_HbOrSx782x2YRsZlVkexLRL0O-VnkG7an", "lat": "49.411320", "lng": "8.673831", "stop": true, "gym": false}, {"name": "3D Mosquito Net", "url": "https://lh6.ggpht.com/3ub_JYHM-HpsYK39j3veoRKLh_uheOiVmZzXXZZi3XSdqlm39ihQyI0Vh-Fus5_2XKc2ajUUFx5rLic2SBGWWQ", "lat": "49.413880", "lng": "8.674278", "stop": false, "gym": false}, {"name": "Mosaic Window on Chapel ", "url": "https://lh6.ggpht.com/tN7dObjvQSW9CiwS6EkNmFE8MYNxDSTcyQKZhsQYXEQ_2AAVzudDzBN9MzP4NKV9YIBMO7rgT41lz2N_ND67", "lat": "49.413917", "lng": "8.674767", "stop": true, "gym": false}], "regions": [{"level": 14, "face": 2, "i": 969, "j": 6735, "stops": 17, "gyms": 3}, {"level": 14, "face": 2, "i": 969, "j": 6734, "stops": 25, "gyms": 3}, {"level": 14, "face": 2, "i": 968, "j": 6735, "stops": 2, "gyms": 1}, {"level": 14, "face": 2, "i": 968, "j": 6734, "stops": 5, "gyms": 2}]}