{"portals": [{"name": "Deformed Stone Sculpture", "url": "https://lh3.googleusercontent.com/pAzYD-1xjy-LYAeP1Q8ysAS7n-Py5KsF8aQE132s8b9hNLlL6Lvk1L1sY_VVKjPCv4-9bquPYLheoN5ToggG", "lat": "49.445713", "lng": "8.672355", "stop": true, "gym": false}, {"name": "Graffiti Dossenheim", "url": "https://lh5.ggpht.com/2VMRtFa1I9d1wbQvOu7uHJN1jMnIvEm3p44iJr1JFwuPr6DpoJs3Pn-zwUKKuZL3VKFbi3SgDtWxf2ZypGtWJO8f1ZMl8OhkMywmBXxtHRIudgEkmw", "lat": "49.445572", "lng": "8.674242", "stop": false, "gym": false}, {"name": "Elephant Sculpture Dossenheim", "url": "https://lh3.ggpht.com/7-ywWjt1MOdkR6fCg5FEHr0TonbMNtMqwfj9XEfgJweQRPoAGCT738kximpSqpS-vBE-A54Tgri6XLvyt8Xm", "lat": "49.445980", "lng": "8.678090", "stop": false, "gym": true}, {"name": "Wasserversorgung Dossenheim ", "url": "https://lh5.ggpht.com/y-TxSLFFdMTSvYZXL5hCh4uzhFwLlVSdrP4RW7_yN7BX8VrtutsBDDaT1pqI1ZBm5CiYfzuGXOOX8Xn17Lc", "lat": "49.446414", "lng": "8.681511", "stop": true, "gym": false}, {"name": "Woman Mural", "url": "https://lh5.ggpht.com/33l5jDbA56haQgDwucxPXppvFUDgAAZKzVZuOU4SqsR6Y6tBfsUKlh7ybPfdUaPwQgfopJX67mgXPvpMbDqtQDBPQi463WkNJ9J0LK0Yu0zrdJo8Cw", "lat": "49.445533", "lng": "8.674748", "stop": true, "gym": false}, {"name": "Kreuz", "url": "https://lh6.ggpht.com/k9l6pnx3qJ3TlvvydyMfV36coR7oDJ2YohQJ1pgJzVqNCDTjCE9gc6JlfHaVPjyaBBnSU5VCGZ9Ae1-g5MsLgrLxxrE9TGvbTg-N5qKBRzsU4zo", "lat": "49.445815", "lng": "8.674932", "stop": true, "gym": false}, {"name": "Liegender Typ", "url": "https://lh4.ggpht.com/o8mbmLEawoLhEgy48bGrDeyHoebPfXS1iu-FVhMyORxGt1-7k0MlLhVTBsb_0qo3EmozT9paYUkHKltHGZ1K", "lat": "49.446737", "lng": "8.683612", "stop": false, "gym": true}, {"name": "Wasserstein", "url": "https://lh3.googleusercontent.com/rKvm15DWa8XdFHsFdnyTN7z0zY_LQA-am6j7rRNYwtqSZyRdJjwMb11hQRKZFqcottJq4x-YBQWOjznjk0Ad", "lat": "49.446489", "lng": "8.674012", "stop": true, "gym": false}, {"name": "Jesus Kreuz Dossenheim Ost", "url": "https://lh4.ggpht.com/aG1rc_5iU3zyKVDERMNi-z-YC9IN6Bj3Lg2pBjOhU0t18Bnze39VES7xjKGu7we_sHzyHG_gCpCoxLMezTXRSXJJ_vTTLEFobii9D3JMAyi_cTzH", "lat": "49.446706", "lng": "8.677932", "stop": true, "gym": false}, {"name": "Skateboard Park Dossenheim", "url": "https://lh5.ggpht.com/u1ybjxDkLNzariJxd0yWHu7WPpUU5qyrEp_7wtfMRP2a29T3AT3meydJSrESQDVMo-fQ49EkFADNIFhVUxuqFJo_pah1H22ykioNxRx7L9DsBkWr", "lat": "49.442636", "lng": "8.670969", "stop": false, "gym": true}, {"name": "Stone Man by Schauenburghalle", "url": "https://lh3.googleusercontent.com/lRKOeL82ThYEMdvmtskVOiDeLJgPIcxzXoXCaEqovO6vjMS2ayiTbAwS3knVWZrLyQkZXgaNEzbKmIM_2GOI", "lat": "49.443581", "lng": "8.671660", "stop": false, "gym": true}, {"name": "The Wooden Wolf", "url": "https://lh5.ggpht.com/QqXO2NEuKgqHXxVV93KNrEIkuhjOk62tMKMBJlBcsi0zg0WVWulbtEx5SQQLWuTsAEz3otOD_HVqT2zAP1w", "lat": "49.440037", "lng": "8.681964", "stop": false, "gym": true}, {"name": "Skate Kunst", "url": "https://lh3.ggpht.com/NKOkJzuwPTJX06-yr4ouMbJIx4bsZLsltrgozykY8tuiqC8dQjG3_DMCqPACVupR3E0bOL_UhgGFhL51cq4B", "lat": "49.438972", "lng": "8.679076", "stop": true, "gym": false}, {"name": "Dornfelder Weinanbau ", "url": "https://lh3.googleusercontent.com/Dhb-LDGIfHDs_ENIVpZvZT58NUOjqduwuidbfJkbzPVzuGiOp6wdWjTeF6bLGs5CRT4WEEm9541ttHOL_NN4", "lat": "49.443326", "lng": "8.680750", "stop": true, "gym": false}, {"name": "Hillenbach Gedenkstein", "url": "https://lh4.ggpht.com/ic4JUYB0_l34Q5rEOAzzGqOvyYQZFLpuy6esa1nCbSgHlvp-OHP9ImCXYvudFvmw4lYjopDDyAVVgGxfLn8", "lat": "49.438804", "lng": "8.682020", "stop": true, "gym": false}, {"name": "Colorful Lion ", "url": "https://lh3.ggpht.com/e1Jz1GtzBu8LMblRfJMeW0CVkuEfb5MgnzKXIGqsvZj6krJeRVmNk7jxPDsxCk7vTAIlNSDf6WUffb3W3l0", "lat": "49.437331", "lng": "8.681602", "stop": true, "gym": false}, {"name": "Okologische Vielfalt", "url": "https://lh3.ggpht.com/1KCIwpr7BfVvm_WhAihvLjN1Py2b4IYu26S0Wm28hUbmh9BGW53qZhKcRy0NpYIPOgsAuz_ZIcTh-wLoJSQ", "lat": "49.438966", "lng": "8.674643", "stop": true, "gym": false}, {"name": "Steinbock Statue", "url": "https://lh5.ggpht.com/UODyDfjCHGNm_1qtA1hXdqtKZn-VXF_hCwUmhcopxtj6zb5TbLzqt0mtUYeHpIqKKKNVehl2qxDvbHJ8SiqD5g", "lat": "49.437224", "lng": "8.678279", "stop": true, "gym": false}], "regions": [{"level": 14, "face": 2, "i": 975, "j": 6735, "stops": 5, "gyms": 2}, {"level": 14, "face": 2, "i": 975, "j": 6734, "stops": 2, "gyms": 1}, {"level": 14, "face": 2, "i": 974, "j": 6735, "stops": 1, "gyms": 1}, {"level": 14, "face": 2, "i": 974, "j": 6734, "stops": 4, "gyms": 1}]}